Time,header.seq,header.stamp.secs,header.stamp.nsecs,header.frame_id,errCode,dataGood_0,dataGood_1,dataGood_2,dataGood_3,altitudeBeam_0,altitudeBeam_1,altitudeBeam_2,altitudeBeam_3,bottomVelocityBeam_0,bottomVelocityBeam_1,bottomVelocityBeam_2,bottomVelocityBeam_3,waterVelocityBeam_0,waterVelocityBeam_1,waterVelocityBeam_2,waterVelocityBeam_3,waterVelocityCredit_0,waterVelocityCredit_1,waterVelocityCredit_2,waterVelocityCredit_3,velocityInst_0,velocityInst_1,velocityInst_2,velocityInstFlag,velocityEarth_0,velocityEarth_1,velocityEarth_2,velocityEarthFlag,waterVelocityInst_0,waterVelocityInst_1,waterVelocityInst_2,waterVelocityInstFlag,waterVelocityEarth_0,waterVelocityEarth_1,waterVelocityEarth_2,waterVelocityEarthFlag,roll,pitch,heading,altitude,temperature,pressure,salinity,soundSpeed,rawData
1372687208.632645,1245,1372687208,633787539,dvl_linkquest,0X0000,0,1,1,1,0.0,2.0,2.0,2.1,0.0,-0.0489,0.0848,0.0369,0.20400000000000001,0.0,0.0,0.0,1.0,0.0,0.0,0.0,-0.2424,-0.1145,-0.006500000000000001,1,-0.2424,-0.1145,-0.006500000000000001,1,0.0,0.0,0.0,0,0.0,0.0,0.0,0,0.0,0.0,0.0,2.0,15.0,2853823.582,0.0,1500.0,"%$#NQ.RES 0X0000 0 1 1 1 0 2.0 2.0 2.1 0 -48.9 84.8 36.9 204 0 0 0 1 0 0 0 -242.4 -114.5 -6.5 1 -242.4 -114.5 -6.5 1 0 0 0 0 0 0 0 0 0 0 0 2.0 15.0 2853823.582 0 1500 75
"
1372687208.9712906,1246,1372687208,970754788,dvl_linkquest,0X0000,0,1,1,1,0.0,2.0,2.0,2.1,0.0,-0.8699,0.09509999999999999,0.0193,-0.24,0.0,0.0,0.0,1.0,0.0,0.0,0.0,0.0,0.0,0.0,0,0.0,0.0,0.0,0,0.0,0.0,0.0,0,0.0,0.0,0.0,0,0.0,0.0,0.0,2.0,15.0,2853823.582,0.0,1500.0,"%$#NQ.RES 0X0000 0 1 1 1 0 2.0 2.0 2.1 0 -869.9 95.1 19.3 -240 0 0 0 1 0 0 0 0 0 0 0 0 0 0 0 0 0 0 0 0 0 0 0 0 0 0 2.0 15.0 2853823.582 0 1500 83
"
1372687209.3295708,1247,1372687209,332731486,dvl_linkquest,0X0000,0,1,1,1,0.0,2.0,2.0,2.1,0.0,-0.0426,0.0932,0.01,0.44,0.0,0.0,0.0,1.0,0.0,0.0,0.0,-0.2923,-0.0702,-0.0176,1,-0.2923,-0.0702,-0.0176,1,0.0,0.0,0.0,0,0.0,0.0,0.0,0,0.0,0.0,0.0,2.0,15.0,2853823.582,0.0,1500.0,"%$#NQ.RES 0X0000 0 1 1 1 0 2.0 2.0 2.1 0 -42.6 93.2 10.0 440 0 0 0 1 0 0 0 -292.3 -70.2 -17.6 1 -292.3 -70.2 -17.6 1 0 0 0 0 0 0 0 0 0 0 0 2.0 15.0 2853823.582 0 1500 73
"
1372687209.6913612,1248,1372687209,694532476,dvl_linkquest,0X0000,0,1,1,1,0.0,2.0,2.0,2.0,0.0,-0.019899999999999998,0.055700000000000006,0.015300000000000001,-0.555,0.0,0.0,0.0,1.0,0.0,0.0,0.0,-0.15480000000000002,-0.047,-0.0025,1,-0.15480000000000002,-0.047,-0.0025,1,0.0,0.0,0.0,0,0.0,0.0,0.0,0,0.0,0.0,0.0,2.0,15.0,2853823.582,0.0,1500.0,"%$#NQ.RES 0X0000 0 1 1 1 0 2.0 2.0 2.0 0 -19.9 55.7 15.3 -555 0 0 0 1 0 0 0 -154.8 -47.0 -2.5 1 -154.8 -47.0 -2.5 1 0 0 0 0 0 0 0 0 0 0 0 2.0 15.0 2853823.582 0 1500 104
"
1372687210.04136,1249,1372687210,50381762,dvl_linkquest,0X0000,0,1,1,1,0.0,2.0,2.0,2.0,0.0,-0.0348,0.0485,0.0335,0.581,0.0,0.0,0.0,1.0,0.0,0.0,0.0,-0.13119999999999998,-0.0912,-0.0007,1,-0.13119999999999998,-0.0912,-0.0007,1,0.0,0.0,0.0,0,0.0,0.0,0.0,0,0.0,0.0,0.0,2.0,15.0,2853823.582,0.0,1500.0,"%$#NQ.RES 0X0000 0 1 1 1 0 2.0 2.0 2.0 0 -34.8 48.5 33.5 581 0 0 0 1 0 0 0 -131.2 -91.2 -0.7 1 -131.2 -91.2 -0.7 1 0 0 0 0 0 0 0 0 0 0 0 2.0 15.0 2853823.582 0 1500 78
"
1372687210.4144418,1250,1372687210,415522531,dvl_linkquest,0X0000,0,1,1,1,0.0,2.0,2.0,2.0,0.0,-0.0192,0.047700000000000006,0.0152,-0.47500000000000003,0.0,0.0,0.0,1.0,0.0,0.0,0.0,-0.13269999999999998,-0.045899999999999996,-0.0022,1,-0.13269999999999998,-0.045899999999999996,-0.0022,1,0.0,0.0,0.0,0,0.0,0.0,0.0,0,0.0,0.0,0.0,2.0,15.0,2853823.582,0.0,1500.0,"%$#NQ.RES 0X0000 0 1 1 1 0 2.0 2.0 2.0 0 -19.2 47.7 15.2 -475 0 0 0 1 0 0 0 -132.7 -45.9 -2.2 1 -132.7 -45.9 -2.2 1 0 0 0 0 0 0 0 0 0 0 0 2.0 15.0 2853823.582 0 1500 98
"
1372687210.7744956,1251,1372687210,777928841,dvl_linkquest,0X0000,0,1,1,1,0.0,2.0,2.0,2.0,0.0,-0.027899999999999998,0.0353,-0.0262,-0.06,0.0,0.0,0.0,1.0,0.0,0.0,0.0,-0.16640000000000002,-0.0023,-0.0292,1,-0.16640000000000002,-0.0023,-0.0292,1,0.0,0.0,0.0,0,0.0,0.0,0.0,0,0.0,0.0,0.0,2.0,15.0,2853823.582,0.0,1500.0,"%$#NQ.RES 0X0000 0 1 1 1 0 2.0 2.0 2.0 0 -27.9 35.3 -26.2 -60 0 0 0 1 0 0 0 -166.4 -2.3 -29.2 1 -166.4 -2.3 -29.2 1 0 0 0 0 0 0 0 0 0 0 0 2.0 15.0 2853823.582 0 1500 120
"
1372687211.1221445,1252,1372687211,126857363,dvl_linkquest,0X0000,1,1,1,1,2.2,2.0,2.0,2.0,-0.0187,0.0023,0.06470000000000001,0.0932,0.0,0.0,0.0,0.0,0.0,0.0,0.0,0.0,-0.1113,-0.1213,0.0381,1,-0.1113,-0.1213,0.0381,1,0.0,0.0,0.0,0,0.0,0.0,0.0,0,0.0,0.0,0.0,2.0,15.0,2853823.582,0.0,1500.0,"%$#NQ.RES 0X0000 1 1 1 1 2.2 2.0 2.0 2.0 -18.7 2.3 64.7 93.2 0 0 0 0 0 0 0 0 -111.3 -121.3 38.1 1 -111.3 -121.3 38.1 1 0 0 0 0 0 0 0 0 0 0 0 2.0 15.0 2853823.582 0 1500 67
"
1372687211.4798055,1253,1372687211,484276700,dvl_linkquest,0X0000,0,1,1,1,0.0,2.1,2.0,2.0,0.0,0.0024,0.0823,0.0862,0.319,0.0,0.0,0.0,1.0,0.0,0.0,0.0,-0.1014,-0.1118,0.047799999999999995,1,-0.1014,-0.1118,0.047799999999999995,1,0.0,0.0,0.0,0,0.0,0.0,0.0,0,0.0,0.0,0.0,2.0,15.0,2853823.582,0.0,1500.0,"%$#NQ.RES 0X0000 0 1 1 1 0 2.1 2.0 2.0 0 2.4 82.3 86.2 319 0 0 0 1 0 0 0 -101.4 -111.8 47.8 1 -101.4 -111.8 47.8 1 0 0 0 0 0 0 0 0 0 0 0 2.0 15.0 2853823.582 0 1500 85
"
1372687211.8366187,1254,1372687211,838203232,dvl_linkquest,0X0000,1,1,1,1,2.2,2.2,2.0,2.1,-0.0169,-0.005200000000000001,0.0621,0.0378,0.0,0.0,0.0,0.0,0.0,0.0,0.0,0.0,-0.10540000000000001,-0.0574,0.021,1,-0.10540000000000001,-0.0574,0.021,1,0.0,0.0,0.0,0,0.0,0.0,0.0,0,0.0,0.0,0.0,2.0,15.0,2853823.582,0.0,1500.0,"%$#NQ.RES 0X0000 1 1 1 1 2.2 2.2 2.0 2.1 -16.9 -5.2 62.1 37.8 0 0 0 0 0 0 0 0 -105.4 -57.4 21.0 1 -105.4 -57.4 21.0 1 0 0 0 0 0 0 0 0 0 0 0 2.0 15.0 2853823.582 0 1500 111
"
1372687212.1862733,1255,1372687212,187703788,dvl_linkquest,0X0000,1,1,1,1,2.2,2.2,2.0,2.1,-0.0261,-0.006,0.0746,0.033600000000000005,0.0,0.0,0.0,0.0,0.0,0.0,0.0,0.0,-0.13440000000000002,-0.0529,0.0205,1,-0.13440000000000002,-0.0529,0.0205,1,0.0,0.0,0.0,0,0.0,0.0,0.0,0,0.0,0.0,0.0,2.0,15.0,2853823.582,0.0,1500.0,"%$#NQ.RES 0X0000 1 1 1 1 2.2 2.2 2.0 2.1 -26.1 -6.0 74.6 33.6 0 0 0 0 0 0 0 0 -134.4 -52.9 20.5 1 -134.4 -52.9 20.5 1 0 0 0 0 0 0 0 0 0 0 0 2.0 15.0 2853823.582 0 1500 111
"
1372687212.5269432,1256,1372687212,528160873,dvl_linkquest,0X0000,1,1,1,1,2.2,2.2,2.0,2.1,-0.0511,0.0,0.0852,0.0466,0.0,0.0,0.0,0.0,0.0,0.0,0.0,0.0,-0.1819,-0.062200000000000005,0.0217,1,-0.1819,-0.062200000000000005,0.0217,1,0.0,0.0,0.0,0,0.0,0.0,0.0,0,0.0,0.0,0.0,2.0,15.0,2853823.582,0.0,1500.0,"%$#NQ.RES 0X0000 1 1 1 1 2.2 2.2 2.0 2.1 -51.1 0 85.2 46.6 0 0 0 0 0 0 0 0 -181.9 -62.2 21.7 1 -181.9 -62.2 21.7 1 0 0 0 0 0 0 0 0 0 0 0 2.0 15.0 2853823.582 0 1500 82
"
1372687212.8689334,1257,1372687212,873782958,dvl_linkquest,0X0000,1,1,1,1,2.2,2.2,2.0,2.1,0.0258,-0.0018000000000000002,0.0781,0.047799999999999995,0.0,0.0,0.0,0.0,0.0,0.0,0.0,0.0,-0.0698,-0.06620000000000001,0.0404,1,-0.0698,-0.06620000000000001,0.0404,1,0.0,0.0,0.0,0,0.0,0.0,0.0,0,0.0,0.0,0.0,2.0,15.0,2853823.582,0.0,1500.0,"%$#NQ.RES 0X0000 1 1 1 1 2.2 2.2 2.0 2.1 25.8 -1.8 78.1 47.8 0 0 0 0 0 0 0 0 -69.8 -66.2 40.4 1 -69.8 -66.2 40.4 1 0 0 0 0 0 0 0 0 0 0 0 2.0 15.0 2853823.582 0 1500 65
"
1372687213.227482,1258,1372687213,227814503,dvl_linkquest,0X0000,1,1,1,1,2.3,2.2,2.0,2.2,-0.0427,-0.0078,0.09290000000000001,0.053200000000000004,0.0,0.0,0.0,0.0,0.0,0.0,0.0,0.0,-0.181,-0.08140000000000001,0.0258,1,-0.181,-0.08140000000000001,0.0258,1,0.0,0.0,0.0,0,0.0,0.0,0.0,0,0.0,0.0,0.0,2.0,15.0,2853823.582,0.0,1500.0,"%$#NQ.RES 0X0000 1 1 1 1 2.3 2.2 2.0 2.2 -42.7 -7.8 92.9 53.2 0 0 0 0 0 0 0 0 -181.0 -81.4 25.8 1 -181.0 -81.4 25.8 1 0 0 0 0 0 0 0 0 0 0 0 2.0 15.0 2853823.582 0 1500 101
"
1372687213.5764573,1259,1372687213,576702365,dvl_linkquest,0X0000,1,1,1,1,2.3,2.2,2.1,2.2,-0.0212,-0.0508,0.1052,0.027600000000000003,0.0,0.0,0.0,0.0,0.0,0.0,0.0,0.0,-0.1687,-0.1046,0.016399999999999998,1,-0.1687,-0.1046,0.016399999999999998,1,0.0,0.0,0.0,0,0.0,0.0,0.0,0,0.0,0.0,0.0,2.1,15.0,2853823.582,0.0,1500.0,"%$#NQ.RES 0X0000 1 1 1 1 2.3 2.2 2.1 2.2 -21.2 -50.8 105.2 27.6 0 0 0 0 0 0 0 0 -168.7 -104.6 16.4 1 -168.7 -104.6 16.4 1 0 0 0 0 0 0 0 0 0 0 0 2.1 15.0 2853823.582 0 1500 100
"
1372687213.9290206,1260,1372687213,930816398,dvl_linkquest,0X0000,1,1,1,1,2.3,2.3,2.1,2.2,-0.0424,-0.005200000000000001,0.09290000000000001,0.0505,0.0,0.0,0.0,0.0,0.0,0.0,0.0,0.0,-0.1806,-0.0743,0.0258,1,-0.1806,-0.0743,0.0258,1,0.0,0.0,0.0,0,0.0,0.0,0.0,0,0.0,0.0,0.0,2.1,15.0,2853823.582,0.0,1500.0,"%$#NQ.RES 0X0000 1 1 1 1 2.3 2.3 2.1 2.2 -42.4 -5.2 92.9 50.5 0 0 0 0 0 0 0 0 -180.6 -74.3 25.8 1 -180.6 -74.3 25.8 1 0 0 0 0 0 0 0 0 0 0 0 2.1 15.0 2853823.582 0 1500 107
"
1372687214.2798147,1261,1372687214,280283699,dvl_linkquest,0X0000,1,1,1,1,2.3,2.3,2.1,2.2,-0.0517,-0.0107,0.09340000000000001,0.0479,0.0,0.0,0.0,0.0,0.0,0.0,0.0,0.0,-0.19369999999999998,-0.0782,0.0213,1,-0.19369999999999998,-0.0782,0.0213,1,0.0,0.0,0.0,0,0.0,0.0,0.0,0,0.0,0.0,0.0,2.1,15.0,2853823.582,0.0,1500.0,"%$#NQ.RES 0X0000 1 1 1 1 2.3 2.3 2.1 2.2 -51.7 -10.7 93.4 47.9 0 0 0 0 0 0 0 0 -193.7 -78.2 21.3 1 -193.7 -78.2 21.3 1 0 0 0 0 0 0 0 0 0 0 0 2.1 15.0 2853823.582 0 1500 93
"
1372687214.620814,1262,1372687214,627721847,dvl_linkquest,0X0000,1,1,1,1,2.3,2.3,2.1,2.2,-0.0691,-0.0259,0.08120000000000001,0.04820000000000001,0.0,0.0,0.0,0.0,0.0,0.0,0.0,0.0,-0.2006,-0.0989,0.0092,1,-0.2006,-0.0989,0.0092,1,0.0,0.0,0.0,0,0.0,0.0,0.0,0,0.0,0.0,0.0,2.1,15.0,2853823.582,0.0,1500.0,"%$#NQ.RES 0X0000 1 1 1 1 2.3 2.3 2.1 2.2 -69.1 -25.9 81.2 48.2 0 0 0 0 0 0 0 0 -200.6 -98.9 9.2 1 -200.6 -98.9 9.2 1 0 0 0 0 0 0 0 0 0 0 0 2.1 15.0 2853823.582 0 1500 89
"
1372687214.9734461,1263,1372687214,974709562,dvl_linkquest,0X0000,1,1,1,1,2.4,2.3,2.0,2.3,-0.0678,-0.0151,0.0952,0.0126,0.0,0.0,0.0,0.0,0.0,0.0,0.0,0.0,-0.2175,-0.037,0.0067,1,-0.2175,-0.037,0.0067,1,0.0,0.0,0.0,0,0.0,0.0,0.0,0,0.0,0.0,0.0,2.0,15.0,2853823.582,0.0,1500.0,"%$#NQ.RES 0X0000 1 1 1 1 2.4 2.3 2.0 2.3 -67.8 -15.1 95.2 12.6 0 0 0 0 0 0 0 0 -217.5 -37.0 6.7 1 -217.5 -37.0 6.7 1 0 0 0 0 0 0 0 0 0 0 0 2.0 15.0 2853823.582 0 1500 93
"
1372687215.3130696,1264,1372687215,321686070,dvl_linkquest,0X0000,1,1,1,1,2.4,2.3,2.0,2.3,-0.0597,0.0058,0.0945,0.016399999999999998,0.0,0.0,0.0,0.0,0.0,0.0,0.0,0.0,-0.2058,-0.0141,0.0154,1,-0.2058,-0.0141,0.0154,1,0.0,0.0,0.0,0,0.0,0.0,0.0,0,0.0,0.0,0.0,2.0,15.0,2853823.582,0.0,1500.0,"%$#NQ.RES 0X0000 1 1 1 1 2.4 2.3 2.0 2.3 -59.7 5.8 94.5 16.4 0 0 0 0 0 0 0 0 -205.8 -14.1 15.4 1 -205.8 -14.1 15.4 1 0 0 0 0 0 0 0 0 0 0 0 2.0 15.0 2853823.582 0 1500 74
"
1372687215.662462,1265,1372687215,668467149,dvl_linkquest,0X0000,1,1,1,1,2.4,2.2,1.9,2.3,-0.0653,-0.0067,0.04820000000000001,0.007200000000000001,0.0,0.0,0.0,0.0,0.0,0.0,0.0,0.0,-0.1515,-0.018600000000000002,-0.0045000000000000005,1,-0.1515,-0.018600000000000002,-0.0045000000000000005,1,0.0,0.0,0.0,0,0.0,0.0,0.0,0,0.0,0.0,0.0,1.9,15.0,2853823.582,0.0,1500.0,"%$#NQ.RES 0X0000 1 1 1 1 2.4 2.2 1.9 2.3 -65.3 -6.7 48.2 7.2 0 0 0 0 0 0 0 0 -151.5 -18.6 -4.5 1 -151.5 -18.6 -4.5 1 0 0 0 0 0 0 0 0 0 0 0 1.9 15.0 2853823.582 0 1500 81
"
1372687216.011965,1266,1372687216,20448633,dvl_linkquest,0X0000,1,1,1,1,2.4,2.2,2.0,2.3,-0.0458,-0.0329,0.19530000000000003,0.0291,0.0,0.0,0.0,0.0,0.0,0.0,0.0,0.0,-0.32180000000000003,-0.08270000000000001,0.039299999999999995,1,-0.32180000000000003,-0.08270000000000001,0.039299999999999995,1,0.0,0.0,0.0,0,0.0,0.0,0.0,0,0.0,0.0,0.0,2.0,15.0,2853823.582,0.0,1500.0,"%$#NQ.RES 0X0000 1 1 1 1 2.4 2.2 2.0 2.3 -45.8 -32.9 195.3 29.1 0 0 0 0 0 0 0 0 -321.8 -82.7 39.3 1 -321.8 -82.7 39.3 1 0 0 0 0 0 0 0 0 0 0 0 2.0 15.0 2853823.582 0 1500 110
"
1372687216.341442,1267,1372687216,343453734,dvl_linkquest,0X0000,1,1,1,1,2.4,2.2,1.9,2.2,-0.09820000000000001,-0.0008,-0.042100000000000005,0.020100000000000003,0.0,0.0,0.0,0.0,0.0,0.0,0.0,0.0,0.0,0.0,0.0,0,0.0,0.0,0.0,0,0.0,0.0,0.0,0,0.0,0.0,0.0,0,0.0,0.0,0.0,1.9,15.0,2853823.582,0.0,1500.0,"%$#NQ.RES 0X0000 1 1 1 1 2.4 2.2 1.9 2.2 -98.2 -0.8 -42.1 20.1 0 0 0 0 0 0 0 0 0 0 0 0 0 0 0 0 0 0 0 0 0 0 0 0 0 0 0 1.9 15.0 2853823.582 0 1500 72
"
1372687216.6845121,1268,1372687216,692371964,dvl_linkquest,0X0000,1,1,1,1,2.4,2.3,2.3,2.3,-0.026600000000000002,-0.0332,0.5646,0.0178,0.0,0.0,0.0,0.0,0.0,0.0,0.0,0.0,-0.789,-0.0681,0.1409,1,-0.789,-0.0681,0.1409,1,0.0,0.0,0.0,0,0.0,0.0,0.0,0,0.0,0.0,0.0,2.3,15.0,2853823.582,0.0,1500.0,"%$#NQ.RES 0X0000 1 1 1 1 2.4 2.3 2.3 2.3 -26.6 -33.2 564.6 17.8 0 0 0 0 0 0 0 0 -789.0 -68.1 140.9 1 -789.0 -68.1 140.9 1 0 0 0 0 0 0 0 0 0 0 0 2.3 15.0 2853823.582 0 1500 101
"
1372687217.0142996,1269,1372687217,21397108,dvl_linkquest,0X0000,1,1,1,1,2.4,2.3,2.3,2.3,-0.040600000000000004,-0.0512,0.0508,0.0371,0.0,0.0,0.0,0.0,0.0,0.0,0.0,0.0,0.0,0.0,0.0,0,0.0,0.0,0.0,0,0.0,0.0,0.0,0,0.0,0.0,0.0,0,0.0,0.0,0.0,2.3,15.0,2853823.582,0.0,1500.0,"%$#NQ.RES 0X0000 1 1 1 1 2.4 2.3 2.3 2.3 -40.6 -51.2 50.8 37.1 0 0 0 0 0 0 0 0 0 0 0 0 0 0 0 0 0 0 0 0 0 0 0 0 0 0 0 2.3 15.0 2853823.582 0 1500 86
"
1372687217.3679059,1270,1372687217,371276591,dvl_linkquest,0X0000,1,1,1,1,2.4,2.3,2.3,2.3,-0.0485,-0.0115,0.045200000000000004,0.014199999999999999,0.0,0.0,0.0,0.0,0.0,0.0,0.0,0.0,-0.1251,-0.0343,-0.0002,1,-0.1251,-0.0343,-0.0002,1,0.0,0.0,0.0,0,0.0,0.0,0.0,0,0.0,0.0,0.0,2.3,15.0,2853823.582,0.0,1500.0,"%$#NQ.RES 0X0000 1 1 1 1 2.4 2.3 2.3 2.3 -48.5 -11.5 45.2 14.2 0 0 0 0 0 0 0 0 -125.1 -34.3 -0.2 1 -125.1 -34.3 -0.2 1 0 0 0 0 0 0 0 0 0 0 0 2.3 15.0 2853823.582 0 1500 82
"
1372687217.7193172,1271,1372687217,719261365,dvl_linkquest,0X0000,1,1,1,1,2.4,2.3,2.3,2.3,-0.0492,-0.0178,0.06490000000000001,0.0134,0.0,0.0,0.0,0.0,0.0,0.0,0.0,0.0,-0.15230000000000002,-0.041600000000000005,0.003,1,-0.15230000000000002,-0.041600000000000005,0.003,1,0.0,0.0,0.0,0,0.0,0.0,0.0,0,0.0,0.0,0.0,2.3,15.0,2853823.582,0.0,1500.0,"%$#NQ.RES 0X0000 1 1 1 1 2.4 2.3 2.3 2.3 -49.2 -17.8 64.9 13.4 0 0 0 0 0 0 0 0 -152.3 -41.6 3.0 1 -152.3 -41.6 3.0 1 0 0 0 0 0 0 0 0 0 0 0 2.3 15.0 2853823.582 0 1500 86
"
1372687218.068068,1272,1372687218,68718176,dvl_linkquest,0X0000,1,1,1,1,2.4,2.3,2.4,2.3,-0.0298,-0.0015,0.0524,0.0247,0.0,0.0,0.0,0.0,0.0,0.0,0.0,0.0,-0.1097,-0.035,0.0123,1,-0.1097,-0.035,0.0123,1,0.0,0.0,0.0,0,0.0,0.0,0.0,0,0.0,0.0,0.0,2.3,15.0,2853823.582,0.0,1500.0,"%$#NQ.RES 0X0000 1 1 1 1 2.4 2.3 2.4 2.3 -29.8 -1.5 52.4 24.7 0 0 0 0 0 0 0 0 -109.7 -35.0 12.3 1 -109.7 -35.0 12.3 1 0 0 0 0 0 0 0 0 0 0 0 2.3 15.0 2853823.582 0 1500 104
"
1372687218.4163547,1273,1372687218,422023842,dvl_linkquest,0X0000,1,1,1,1,2.4,2.3,2.4,2.3,-0.030100000000000002,-0.0126,0.07629999999999999,0.15680000000000002,0.0,0.0,0.0,0.0,0.0,0.0,0.0,0.0,-0.14200000000000002,-0.2261,0.0513,1,-0.14200000000000002,-0.2261,0.0513,1,0.0,0.0,0.0,0,0.0,0.0,0.0,0,0.0,0.0,0.0,2.3,15.0,2853823.582,0.0,1500.0,"%$#NQ.RES 0X0000 1 1 1 1 2.4 2.3 2.4 2.3 -30.1 -12.6 76.3 156.8 0 0 0 0 0 0 0 0 -142.0 -226.1 51.3 1 -142.0 -226.1 51.3 1 0 0 0 0 0 0 0 0 0 0 0 2.3 15.0 2853823.582 0 1500 98
"
1372687218.757823,1274,1372687218,763151237,dvl_linkquest,0X0000,1,1,1,1,2.4,2.3,2.4,2.3,-0.0286,-0.0045000000000000005,0.0429,0.0262,0.0,0.0,0.0,0.0,0.0,0.0,0.0,0.0,-0.09540000000000001,-0.041,0.0097,1,-0.09540000000000001,-0.041,0.0097,1,0.0,0.0,0.0,0,0.0,0.0,0.0,0,0.0,0.0,0.0,2.3,15.0,2853823.582,0.0,1500.0,"%$#NQ.RES 0X0000 1 1 1 1 2.4 2.3 2.4 2.3 -28.6 -4.5 42.9 26.2 0 0 0 0 0 0 0 0 -95.4 -41.0 9.7 1 -95.4 -41.0 9.7 1 0 0 0 0 0 0 0 0 0 0 0 2.3 15.0 2853823.582 0 1500 105
"
1372687219.1208448,1275,1372687219,121915169,dvl_linkquest,0X0000,1,1,1,1,2.4,2.4,2.4,2.4,-0.0368,-0.0117,0.1616,0.0213,0.0,0.0,0.0,0.0,0.0,0.0,0.0,0.0,-0.26480000000000004,-0.044,0.0362,1,-0.26480000000000004,-0.044,0.0362,1,0.0,0.0,0.0,0,0.0,0.0,0.0,0,0.0,0.0,0.0,2.4,15.0,2853823.582,0.0,1500.0,"%$#NQ.RES 0X0000 1 1 1 1 2.4 2.4 2.4 2.4 -36.8 -11.7 161.6 21.3 0 0 0 0 0 0 0 0 -264.8 -44.0 36.2 1 -264.8 -44.0 36.2 1 0 0 0 0 0 0 0 0 0 0 0 2.4 15.0 2853823.582 0 1500 96
"
1372687219.4623716,1276,1372687219,469427278,dvl_linkquest,0X0000,1,1,1,1,2.4,2.4,2.4,2.4,-0.0831,-0.0047,0.0544,0.0183,0.0,0.0,0.0,0.0,0.0,0.0,0.0,0.0,-0.1835,-0.0307,-0.0040999999999999995,1,-0.1835,-0.0307,-0.0040999999999999995,1,0.0,0.0,0.0,0,0.0,0.0,0.0,0,0.0,0.0,0.0,2.4,15.0,2853823.582,0.0,1500.0,"%$#NQ.RES 0X0000 1 1 1 1 2.4 2.4 2.4 2.4 -83.1 -4.7 54.4 18.3 0 0 0 0 0 0 0 0 -183.5 -30.7 -4.1 1 -183.5 -30.7 -4.1 1 0 0 0 0 0 0 0 0 0 0 0 2.4 15.0 2853823.582 0 1500 108
"
1372687219.81442,1277,1372687219,813631791,dvl_linkquest,0X0000,1,1,1,1,2.4,2.3,2.4,2.4,-0.0287,0.027100000000000003,0.0441,0.0263,0.0,0.0,0.0,0.0,0.0,0.0,0.0,0.0,-0.09720000000000001,0.0011,0.0185,1,-0.09720000000000001,0.0011,0.0185,1,0.0,0.0,0.0,0,0.0,0.0,0.0,0,0.0,0.0,0.0,2.3,15.0,2853823.582,0.0,1500.0,"%$#NQ.RES 0X0000 1 1 1 1 2.4 2.3 2.4 2.4 -28.7 27.1 44.1 26.3 0 0 0 0 0 0 0 0 -97.2 1.1 18.5 1 -97.2 1.1 18.5 1 0 0 0 0 0 0 0 0 0 0 0 2.3 15.0 2853823.582 0 1500 120
"
1372687220.1639268,1278,1372687220,163395486,dvl_linkquest,0X0000,1,1,1,1,2.3,2.4,2.4,2.4,-0.0337,0.008,0.1379,0.020300000000000002,0.0,0.0,0.0,0.0,0.0,0.0,0.0,0.0,-0.229,-0.016399999999999998,0.0357,1,-0.229,-0.016399999999999998,0.0357,1,0.0,0.0,0.0,0,0.0,0.0,0.0,0,0.0,0.0,0.0,2.3,15.0,2853823.582,0.0,1500.0,"%$#NQ.RES 0X0000 1 1 1 1 2.3 2.4 2.4 2.4 -33.7 8.0 137.9 20.3 0 0 0 0 0 0 0 0 -229.0 -16.4 35.7 1 -229.0 -16.4 35.7 1 0 0 0 0 0 0 0 0 0 0 0 2.3 15.0 2853823.582 0 1500 117
"
1372687220.513046,1279,1372687220,513619372,dvl_linkquest,0X0000,1,1,1,1,2.4,2.3,2.4,2.5,-0.014,-0.0001,-0.2387,0.1125,0.0,0.0,0.0,0.0,0.0,0.0,0.0,0.0,0.2999,-0.15030000000000002,-0.037899999999999996,1,0.2999,-0.15030000000000002,-0.037899999999999996,1,0.0,0.0,0.0,0,0.0,0.0,0.0,0,0.0,0.0,0.0,2.3,15.0,2853823.582,0.0,1500.0,"%$#NQ.RES 0X0000 1 1 1 1 2.4 2.3 2.4 2.5 -14.0 -0.1 -238.7 112.5 0 0 0 0 0 0 0 0 299.9 -150.3 -37.9 1 299.9 -150.3 -37.9 1 0 0 0 0 0 0 0 0 0 0 0 2.3 15.0 2853823.582 0 1500 75
"
1372687220.8334806,1280,1372687220,841440972,dvl_linkquest,0X0000,1,1,1,1,2.4,2.3,2.4,2.4,-0.018600000000000002,-0.0070999999999999995,0.036000000000000004,0.0363,0.0,0.0,0.0,0.0,0.0,0.0,0.0,0.0,0.0,0.0,0.0,0,0.0,0.0,0.0,0,0.0,0.0,0.0,0,0.0,0.0,0.0,0,0.0,0.0,0.0,2.3,15.0,2853823.582,0.0,1500.0,"%$#NQ.RES 0X0000 1 1 1 1 2.4 2.3 2.4 2.4 -18.6 -7.1 36.0 36.3 0 0 0 0 0 0 0 0 0 0 0 0 0 0 0 0 0 0 0 0 0 0 0 0 0 0 0 2.3 15.0 2853823.582 0 1500 96
"
1372687221.1923947,1281,1372687221,191293929,dvl_linkquest,0X0000,1,1,1,1,2.4,2.5,2.4,2.4,-0.0151,-0.0108,0.0626,0.0366,0.0,0.0,0.0,0.0,0.0,0.0,0.0,0.0,-0.1037,-0.0633,0.0197,1,-0.1037,-0.0633,0.0197,1,0.0,0.0,0.0,0,0.0,0.0,0.0,0,0.0,0.0,0.0,2.4,15.0,2853823.582,0.0,1500.0,"%$#NQ.RES 0X0000 1 1 1 1 2.4 2.5 2.4 2.4 -15.1 -10.8 62.6 36.6 0 0 0 0 0 0 0 0 -103.7 -63.3 19.7 1 -103.7 -63.3 19.7 1 0 0 0 0 0 0 0 0 0 0 0 2.4 15.0 2853823.582 0 1500 86
"
1372687221.5457537,1282,1372687221,544402664,dvl_linkquest,0X0000,1,1,1,1,2.4,2.5,2.5,2.3,-0.0423,0.0265,0.0748,0.0376,0.0,0.0,0.0,0.0,0.0,0.0,0.0,0.0,-0.15630000000000002,-0.0148,0.026000000000000002,1,-0.15630000000000002,-0.0148,0.026000000000000002,1,0.0,0.0,0.0,0,0.0,0.0,0.0,0,0.0,0.0,0.0,2.3,15.0,2853823.582,0.0,1500.0,"%$#NQ.RES 0X0000 1 1 1 1 2.4 2.5 2.5 2.3 -42.3 26.5 74.8 37.6 0 0 0 0 0 0 0 0 -156.3 -14.8 26.0 1 -156.3 -14.8 26.0 1 0 0 0 0 0 0 0 0 0 0 0 2.3 15.0 2853823.582 0 1500 122
"
1372687221.8853426,1283,1372687221,889724077,dvl_linkquest,0X0000,1,1,1,1,2.4,2.5,2.4,2.4,-0.0363,0.0448,0.0658,0.032,0.0,0.0,0.0,0.0,0.0,0.0,0.0,0.0,-0.1363,0.0171,0.0286,1,-0.1363,0.0171,0.0286,1,0.0,0.0,0.0,0,0.0,0.0,0.0,0,0.0,0.0,0.0,2.4,15.0,2853823.582,0.0,1500.0,"%$#NQ.RES 0X0000 1 1 1 1 2.4 2.5 2.4 2.4 -36.3 44.8 65.8 32.0 0 0 0 0 0 0 0 0 -136.3 17.1 28.6 1 -136.3 17.1 28.6 1 0 0 0 0 0 0 0 0 0 0 0 2.4 15.0 2853823.582 0 1500 114
"
1372687222.2366366,1284,1372687222,239862263,dvl_linkquest,0X0000,1,1,1,1,2.4,2.5,2.4,2.4,-0.0352,-0.0073,0.0773,0.025,0.0,0.0,0.0,0.0,0.0,0.0,0.0,0.0,-0.1501,-0.0431,0.016100000000000003,1,-0.1501,-0.0431,0.016100000000000003,1,0.0,0.0,0.0,0,0.0,0.0,0.0,0,0.0,0.0,0.0,2.4,15.0,2853823.582,0.0,1500.0,"%$#NQ.RES 0X0000 1 1 1 1 2.4 2.5 2.4 2.4 -35.2 -7.3 77.3 25.0 0 0 0 0 0 0 0 0 -150.1 -43.1 16.1 1 -150.1 -43.1 16.1 1 0 0 0 0 0 0 0 0 0 0 0 2.4 15.0 2853823.582 0 1500 111
"
1372687222.5870092,1285,1372687222,587971043,dvl_linkquest,0X0000,1,1,1,1,2.4,2.5,2.4,2.4,-0.0851,0.024300000000000002,0.07150000000000001,0.0274,0.0,0.0,0.0,0.0,0.0,0.0,0.0,0.0,-0.209,-0.0040999999999999995,0.0103,1,-0.209,-0.0040999999999999995,0.0103,1,0.0,0.0,0.0,0,0.0,0.0,0.0,0,0.0,0.0,0.0,2.4,15.0,2853823.582,0.0,1500.0,"%$#NQ.RES 0X0000 1 1 1 1 2.4 2.5 2.4 2.4 -85.1 24.3 71.5 27.4 0 0 0 0 0 0 0 0 -209.0 -4.1 10.3 1 -209.0 -4.1 10.3 1 0 0 0 0 0 0 0 0 0 0 0 2.4 15.0 2853823.582 0 1500 125
"
1372687222.9369304,1286,1372687222,938537422,dvl_linkquest,0X0000,1,1,1,1,2.4,2.5,2.4,2.4,-0.074,0.013000000000000001,0.077,0.0511,0.0,0.0,0.0,0.0,0.0,0.0,0.0,0.0,-0.2015,-0.0508,0.0181,1,-0.2015,-0.0508,0.0181,1,0.0,0.0,0.0,0,0.0,0.0,0.0,0,0.0,0.0,0.0,2.4,15.0,2853823.582,0.0,1500.0,"%$#NQ.RES 0X0000 1 1 1 1 2.4 2.5 2.4 2.4 -74.0 13.0 77.0 51.1 0 0 0 0 0 0 0 0 -201.5 -50.8 18.1 1 -201.5 -50.8 18.1 1 0 0 0 0 0 0 0 0 0 0 0 2.4 15.0 2853823.582 0 1500 114
"
1372687223.28004,1287,1372687223,286704412,dvl_linkquest,0X0000,1,1,1,1,2.4,2.5,2.4,2.3,-0.0818,-0.0046,0.08940000000000001,0.0188,0.0,0.0,0.0,0.0,0.0,0.0,0.0,0.0,-0.2285,-0.0312,0.005900000000000001,1,-0.2285,-0.0312,0.005900000000000001,1,0.0,0.0,0.0,0,0.0,0.0,0.0,0,0.0,0.0,0.0,2.3,15.0,2853823.582,0.0,1500.0,"%$#NQ.RES 0X0000 1 1 1 1 2.4 2.5 2.4 2.3 -81.8 -4.6 89.4 18.8 0 0 0 0 0 0 0 0 -228.5 -31.2 5.9 1 -228.5 -31.2 5.9 1 0 0 0 0 0 0 0 0 0 0 0 2.3 15.0 2853823.582 0 1500 108
"
1372687223.6299043,1288,1372687223,637517051,dvl_linkquest,0X0000,1,1,1,1,2.4,2.5,2.4,2.3,-0.0293,-0.0101,0.09440000000000001,0.0076,0.0,0.0,0.0,0.0,0.0,0.0,0.0,0.0,-0.1651,-0.023600000000000003,0.0169,1,-0.1651,-0.023600000000000003,0.0169,1,0.0,0.0,0.0,0,0.0,0.0,0.0,0,0.0,0.0,0.0,2.3,15.0,2853823.582,0.0,1500.0,"%$#NQ.RES 0X0000 1 1 1 1 2.4 2.5 2.4 2.3 -29.3 -10.1 94.4 7.6 0 0 0 0 0 0 0 0 -165.1 -23.6 16.9 1 -165.1 -23.6 16.9 1 0 0 0 0 0 0 0 0 0 0 0 2.3 15.0 2853823.582 0 1500 107
"
1372687223.9805782,1289,1372687223,984658248,dvl_linkquest,0X0000,1,1,1,1,2.4,2.5,2.4,2.4,0.020300000000000002,-0.0108,0.0655,0.012,0.0,0.0,0.0,0.0,0.0,0.0,0.0,0.0,-0.0603,-0.0304,0.0234,1,-0.0603,-0.0304,0.0234,1,0.0,0.0,0.0,0,0.0,0.0,0.0,0,0.0,0.0,0.0,2.4,15.0,2853823.582,0.0,1500.0,"%$#NQ.RES 0X0000 1 1 1 1 2.4 2.5 2.4 2.4 20.3 -10.8 65.5 12.0 0 0 0 0 0 0 0 0 -60.3 -30.4 23.4 1 -60.3 -30.4 23.4 1 0 0 0 0 0 0 0 0 0 0 0 2.4 15.0 2853823.582 0 1500 123
"
1372687224.32965,1290,1372687224,335037486,dvl_linkquest,0X0000,1,1,1,1,2.4,2.5,2.5,2.3,-0.0824,0.0018000000000000002,0.1,0.020100000000000003,0.0,0.0,0.0,0.0,0.0,0.0,0.0,0.0,-0.2434,-0.024399999999999998,0.0106,1,-0.2434,-0.024399999999999998,0.0106,1,0.0,0.0,0.0,0,0.0,0.0,0.0,0,0.0,0.0,0.0,2.3,15.0,2853823.582,0.0,1500.0,"%$#NQ.RES 0X0000 1 1 1 1 2.4 2.5 2.5 2.3 -82.4 1.8 100.0 20.1 0 0 0 0 0 0 0 0 -243.4 -24.4 10.6 1 -243.4 -24.4 10.6 1 0 0 0 0 0 0 0 0 0 0 0 2.3 15.0 2853823.582 0 1500 114
"
1372687224.6828287,1291,1372687224,685234567,dvl_linkquest,0X0000,1,1,1,1,2.1,2.5,2.5,2.3,-0.0711,0.012400000000000001,0.1193,0.0309,0.0,0.0,0.0,0.0,0.0,0.0,0.0,0.0,-0.2541,-0.0247,0.0247,1,-0.2541,-0.0247,0.0247,1,0.0,0.0,0.0,0,0.0,0.0,0.0,0,0.0,0.0,0.0,2.1,15.0,2853823.582,0.0,1500.0,"%$#NQ.RES 0X0000 1 1 1 1 2.1 2.5 2.5 2.3 -71.1 12.4 119.3 30.9 0 0 0 0 0 0 0 0 -254.1 -24.7 24.7 1 -254.1 -24.7 24.7 1 0 0 0 0 0 0 0 0 0 0 0 2.1 15.0 2853823.582 0 1500 64
"
1372687225.0342386,1292,1372687225,33003547,dvl_linkquest,0X0000,1,1,1,1,2.0,2.5,2.5,2.3,0.024,0.0334,0.1212,0.040600000000000004,0.0,0.0,0.0,0.0,0.0,0.0,0.0,0.0,-0.12969999999999998,-0.0096,0.0591,1,-0.12969999999999998,-0.0096,0.0591,1,0.0,0.0,0.0,0,0.0,0.0,0.0,0,0.0,0.0,0.0,2.0,15.0,2853823.582,0.0,1500.0,"%$#NQ.RES 0X0000 1 1 1 1 2.0 2.5 2.5 2.3 24.0 33.4 121.2 40.6 0 0 0 0 0 0 0 0 -129.7 -9.6 59.1 1 -129.7 -9.6 59.1 1 0 0 0 0 0 0 0 0 0 0 0 2.0 15.0 2853823.582 0 1500 109
"
1372687225.374798,1293,1372687225,380716120,dvl_linkquest,0X0000,1,1,1,1,2.0,2.5,2.5,2.3,-0.0364,0.06609999999999999,0.1237,0.0418,0.0,0.0,0.0,0.0,0.0,0.0,0.0,0.0,-0.2137,0.0324,0.0526,1,-0.2137,0.0324,0.0526,1,0.0,0.0,0.0,0,0.0,0.0,0.0,0,0.0,0.0,0.0,2.0,15.0,2853823.582,0.0,1500.0,"%$#NQ.RES 0X0000 1 1 1 1 2.0 2.5 2.5 2.3 -36.4 66.1 123.7 41.8 0 0 0 0 0 0 0 0 -213.7 32.4 52.6 1 -213.7 32.4 52.6 1 0 0 0 0 0 0 0 0 0 0 0 2.0 15.0 2853823.582 0 1500 74
"
1372687225.7235742,1294,1372687225,730172014,dvl_linkquest,0X0000,1,1,1,1,1.9,2.5,2.5,2.4,-0.0668,0.0249,0.1255,0.0423,0.0,0.0,0.0,0.0,0.0,0.0,0.0,0.0,-0.2567,-0.0232,0.0339,1,-0.2567,-0.0232,0.0339,1,0.0,0.0,0.0,0,0.0,0.0,0.0,0,0.0,0.0,0.0,1.9,15.0,2853823.582,0.0,1500.0,"%$#NQ.RES 0X0000 1 1 1 1 1.9 2.5 2.5 2.4 -66.8 24.9 125.5 42.3 0 0 0 0 0 0 0 0 -256.7 -23.2 33.9 1 -256.7 -23.2 33.9 1 0 0 0 0 0 0 0 0 0 0 0 1.9 15.0 2853823.582 0 1500 70
"
1372687226.0721605,1295,1372687226,78259231,dvl_linkquest,0X0000,1,1,1,1,1.9,2.5,2.5,2.4,-0.0544,0.0385,0.13090000000000002,0.0388,0.0,0.0,0.0,0.0,0.0,0.0,0.0,0.0,-0.24730000000000002,-0.0004,0.0415,1,-0.24730000000000002,-0.0004,0.0415,1,0.0,0.0,0.0,0,0.0,0.0,0.0,0,0.0,0.0,0.0,1.9,15.0,2853823.582,0.0,1500.0,"%$#NQ.RES 0X0000 1 1 1 1 1.9 2.5 2.5 2.4 -54.4 38.5 130.9 38.8 0 0 0 0 0 0 0 0 -247.3 -0.4 41.5 1 -247.3 -0.4 41.5 1 0 0 0 0 0 0 0 0 0 0 0 1.9 15.0 2853823.582 0 1500 68
"
1372687226.4224591,1296,1372687226,427879536,dvl_linkquest,0X0000,1,1,1,1,1.8,2.5,2.5,2.4,-0.0745,0.0291,0.12830000000000003,0.1765,0.0,0.0,0.0,0.0,0.0,0.0,0.0,0.0,-0.2707,-0.19669999999999999,0.0699,1,-0.2707,-0.19669999999999999,0.0699,1,0.0,0.0,0.0,0,0.0,0.0,0.0,0,0.0,0.0,0.0,1.8,15.0,2853823.582,0.0,1500.0,"%$#NQ.RES 0X0000 1 1 1 1 1.8 2.5 2.5 2.4 -74.5 29.1 128.3 176.5 0 0 0 0 0 0 0 0 -270.7 -196.7 69.9 1 -270.7 -196.7 69.9 1 0 0 0 0 0 0 0 0 0 0 0 1.8 15.0 2853823.582 0 1500 118
"
1372687226.7520168,1297,1372687226,758785013,dvl_linkquest,0X0000,1,1,1,1,1.8,2.5,2.5,2.1,-0.0839,0.0317,0.1589,-0.4022,0.0,0.0,0.0,0.0,0.0,0.0,0.0,0.0,0.0,0.0,0.0,0,0.0,0.0,0.0,0,0.0,0.0,0.0,0,0.0,0.0,0.0,0,0.0,0.0,0.0,1.8,15.0,2853823.582,0.0,1500.0,"%$#NQ.RES 0X0000 1 1 1 1 1.8 2.5 2.5 2.1 -83.9 31.7 158.9 -402.2 0 0 0 0 0 0 0 0 0 0 0 0 0 0 0 0 0 0 0 0 0 0 0 0 0 0 0 1.8 15.0 2853823.582 0 1500 89
"
1372687227.1018465,1298,1372687227,106526421,dvl_linkquest,0X0000,1,1,1,1,1.8,2.5,2.5,1.9,-0.0988,0.0156,0.1434,0.0192,0.0,0.0,0.0,0.0,0.0,0.0,0.0,0.0,-0.3232,-0.0048,0.0214,1,-0.3232,-0.0048,0.0214,1,0.0,0.0,0.0,0,0.0,0.0,0.0,0,0.0,0.0,0.0,1.8,15.0,2853823.582,0.0,1500.0,"%$#NQ.RES 0X0000 1 1 1 1 1.8 2.5 2.5 1.9 -98.8 15.6 143.4 19.2 0 0 0 0 0 0 0 0 -323.2 -4.8 21.4 1 -323.2 -4.8 21.4 1 0 0 0 0 0 0 0 0 0 0 0 1.8 15.0 2853823.582 0 1500 74
"
1372687227.453101,1299,1372687227,455710837,dvl_linkquest,0X0000,1,1,1,1,1.7,2.6,2.5,1.9,-0.1023,-0.0213,0.11620000000000001,0.0077,0.0,0.0,0.0,0.0,0.0,0.0,0.0,0.0,-0.2916,-0.038700000000000005,0.0001,1,-0.2916,-0.038700000000000005,0.0001,1,0.0,0.0,0.0,0,0.0,0.0,0.0,0,0.0,0.0,0.0,1.7,15.0,2853823.582,0.0,1500.0,"%$#NQ.RES 0X0000 1 1 1 1 1.7 2.6 2.5 1.9 -102.3 -21.3 116.2 7.7 0 0 0 0 0 0 0 0 -291.6 -38.7 0.1 1 -291.6 -38.7 0.1 1 0 0 0 0 0 0 0 0 0 0 0 1.7 15.0 2853823.582 0 1500 99
"
1372687227.8040464,1300,1372687227,803962307,dvl_linkquest,0X0000,1,1,1,1,1.7,2.6,2.5,1.8,-0.13540000000000002,-0.0555,0.09970000000000001,-0.0107,0.0,0.0,0.0,0.0,0.0,0.0,0.0,0.0,-0.3138,-0.0598,-0.0275,1,-0.3138,-0.0598,-0.0275,1,0.0,0.0,0.0,0,0.0,0.0,0.0,0,0.0,0.0,0.0,1.7,15.0,2853823.582,0.0,1500.0,"%$#NQ.RES 0X0000 1 1 1 1 1.7 2.6 2.5 1.8 -135.4 -55.5 99.7 -10.7 0 0 0 0 0 0 0 0 -313.8 -59.8 -27.5 1 -313.8 -59.8 -27.5 1 0 0 0 0 0 0 0 0 0 0 0 1.7 15.0 2853823.582 0 1500 76
"
1372687228.1564245,1301,1372687228,160125207,dvl_linkquest,0X0000,1,1,1,1,1.6,2.6,2.5,1.8,-0.1155,0.1812,0.1092,-0.0008,0.0,0.0,0.0,0.0,0.0,0.0,0.0,0.0,-0.2999,0.2429,0.0469,1,-0.2999,0.2429,0.0469,1,0.0,0.0,0.0,0,0.0,0.0,0.0,0,0.0,0.0,0.0,1.6,15.0,2853823.582,0.0,1500.0,"%$#NQ.RES 0X0000 1 1 1 1 1.6 2.6 2.5 1.8 -115.5 181.2 109.2 -0.8 0 0 0 0 0 0 0 0 -299.9 242.9 46.9 1 -299.9 242.9 46.9 1 0 0 0 0 0 0 0 0 0 0 0 1.6 15.0 2853823.582 0 1500 94
"
1372687228.5064013,1302,1372687228,509237773,dvl_linkquest,0X0000,1,1,1,1,1.6,2.5,2.5,1.8,-0.1305,0.0731,0.10490000000000001,-0.0188,0.0,0.0,0.0,0.0,0.0,0.0,0.0,0.0,-0.3142,0.1227,0.0077,1,-0.3142,0.1227,0.0077,1,0.0,0.0,0.0,0,0.0,0.0,0.0,0,0.0,0.0,0.0,1.6,15.0,2853823.582,0.0,1500.0,"%$#NQ.RES 0X0000 1 1 1 1 1.6 2.5 2.5 1.8 -130.5 73.1 104.9 -18.8 0 0 0 0 0 0 0 0 -314.2 122.7 7.7 1 -314.2 122.7 7.7 1 0 0 0 0 0 0 0 0 0 0 0 1.6 15.0 2853823.582 0 1500 90
"
1372687228.8572607,1303,1372687228,865005015,dvl_linkquest,0X0000,1,1,1,1,1.5,2.5,2.5,1.7,-0.0297,-0.108,0.1166,-0.015,0.0,0.0,0.0,0.0,0.0,0.0,0.0,0.0,-0.19530000000000003,-0.1241,-0.0097,1,-0.19530000000000003,-0.1241,-0.0097,1,0.0,0.0,0.0,0,0.0,0.0,0.0,0,0.0,0.0,0.0,1.5,15.0,2853823.582,0.0,1500.0,"%$#NQ.RES 0X0000 1 1 1 1 1.5 2.5 2.5 1.7 -29.7 -108.0 116.6 -15.0 0 0 0 0 0 0 0 0 -195.3 -124.1 -9.7 1 -195.3 -124.1 -9.7 1 0 0 0 0 0 0 0 0 0 0 0 1.5 15.0 2853823.582 0 1500 118
"
1372687229.19729,1304,1372687229,205807383,dvl_linkquest,0X0000,1,1,1,1,1.5,2.4,2.5,1.6,-0.1125,0.0282,0.1135,0.0024,0.0,0.0,0.0,0.0,0.0,0.0,0.0,0.0,-0.30160000000000003,0.0344,0.0085,1,-0.30160000000000003,0.0344,0.0085,1,0.0,0.0,0.0,0,0.0,0.0,0.0,0,0.0,0.0,0.0,1.5,15.0,2853823.582,0.0,1500.0,"%$#NQ.RES 0X0000 1 1 1 1 1.5 2.4 2.5 1.6 -112.5 28.2 113.5 2.4 0 0 0 0 0 0 0 0 -301.6 34.4 8.5 1 -301.6 34.4 8.5 1 0 0 0 0 0 0 0 0 0 0 0 1.5 15.0 2853823.582 0 1500 72
"
1372687229.5590346,1305,1372687229,557896039,dvl_linkquest,0X0000,1,1,1,1,1.5,2.5,2.5,1.6,-0.0958,0.0106,0.09659999999999999,-0.0285,0.0,0.0,0.0,0.0,0.0,0.0,0.0,0.0,-0.25680000000000003,0.0522,-0.0047,1,-0.25680000000000003,0.0522,-0.0047,1,0.0,0.0,0.0,0,0.0,0.0,0.0,0,0.0,0.0,0.0,1.5,15.0,2853823.582,0.0,1500.0,"%$#NQ.RES 0X0000 1 1 1 1 1.5 2.5 2.5 1.6 -95.8 10.6 96.6 -28.5 0 0 0 0 0 0 0 0 -256.8 52.2 -4.7 1 -256.8 52.2 -4.7 1 0 0 0 0 0 0 0 0 0 0 0 1.5 15.0 2853823.582 0 1500 94
"
1372687229.8985949,1306,1372687229,899187484,dvl_linkquest,0X0000,1,1,1,1,1.5,2.5,2.5,1.5,-0.0885,0.0079,0.1138,0.0018000000000000002,0.0,0.0,0.0,0.0,0.0,0.0,0.0,0.0,-0.27,0.0081,0.0094,1,-0.27,0.0081,0.0094,1,0.0,0.0,0.0,0,0.0,0.0,0.0,0,0.0,0.0,0.0,1.5,15.0,2853823.582,0.0,1500.0,"%$#NQ.RES 0X0000 1 1 1 1 1.5 2.5 2.5 1.5 -88.5 7.9 113.8 1.8 0 0 0 0 0 0 0 0 -270.0 8.1 9.4 1 -270.0 8.1 9.4 1 0 0 0 0 0 0 0 0 0 0 0 1.5 15.0 2853823.582 0 1500 76
"
1372687230.2475133,1307,1372687230,246513173,dvl_linkquest,0X0000,1,1,1,1,1.4,2.5,2.5,1.5,-0.061700000000000005,0.017,0.12190000000000001,0.0088,0.0,0.0,0.0,0.0,0.0,0.0,0.0,0.0,-0.245,0.0109,0.0232,1,-0.245,0.0109,0.0232,1,0.0,0.0,0.0,0,0.0,0.0,0.0,0,0.0,0.0,0.0,1.4,15.0,2853823.582,0.0,1500.0,"%$#NQ.RES 0X0000 1 1 1 1 1.4 2.5 2.5 1.5 -61.7 17.0 121.9 8.8 0 0 0 0 0 0 0 0 -245.0 10.9 23.2 1 -245.0 10.9 23.2 1 0 0 0 0 0 0 0 0 0 0 0 1.4 15.0 2853823.582 0 1500 120
"
1372687230.5915627,1308,1372687230,593917503,dvl_linkquest,0X0000,1,1,1,1,1.4,2.5,2.5,1.5,-0.0782,0.04820000000000001,0.1468,0.0227,0.0,0.0,0.0,0.0,0.0,0.0,0.0,0.0,-0.3003,0.034,0.0376,1,-0.3003,0.034,0.0376,1,0.0,0.0,0.0,0,0.0,0.0,0.0,0,0.0,0.0,0.0,1.4,15.0,2853823.582,0.0,1500.0,"%$#NQ.RES 0X0000 1 1 1 1 1.4 2.5 2.5 1.5 -78.2 48.2 146.8 22.7 0 0 0 0 0 0 0 0 -300.3 34.0 37.6 1 -300.3 34.0 37.6 1 0 0 0 0 0 0 0 0 0 0 0 1.4 15.0 2853823.582 0 1500 74
"
1372687230.9301946,1309,1372687230,934860410,dvl_linkquest,0X0000,1,1,1,1,1.4,2.5,2.5,1.5,-0.08070000000000001,0.0516,0.16469999999999999,0.0449,0.0,0.0,0.0,0.0,0.0,0.0,0.0,0.0,-0.3275,0.0089,0.048600000000000004,1,-0.3275,0.0089,0.048600000000000004,1,0.0,0.0,0.0,0,0.0,0.0,0.0,0,0.0,0.0,0.0,1.4,15.0,2853823.582,0.0,1500.0,"%$#NQ.RES 0X0000 1 1 1 1 1.4 2.5 2.5 1.5 -80.7 51.6 164.7 44.9 0 0 0 0 0 0 0 0 -327.5 8.9 48.6 1 -327.5 8.9 48.6 1 0 0 0 0 0 0 0 0 0 0 0 1.4 15.0 2853823.582 0 1500 69
"
1372687231.280348,1310,1372687231,280442577,dvl_linkquest,0X0000,1,1,1,1,1.5,2.5,2.2,1.5,-0.0923,0.0169,0.0979,-0.0067,0.0,0.0,0.0,0.0,0.0,0.0,0.0,0.0,-0.2538,0.0315,0.004200000000000001,1,-0.2538,0.0315,0.004200000000000001,1,0.0,0.0,0.0,0,0.0,0.0,0.0,0,0.0,0.0,0.0,1.5,15.0,2853823.582,0.0,1500.0,"%$#NQ.RES 0X0000 1 1 1 1 1.5 2.5 2.2 1.5 -92.3 16.9 97.9 -6.7 0 0 0 0 0 0 0 0 -253.8 31.5 4.2 1 -253.8 31.5 4.2 1 0 0 0 0 0 0 0 0 0 0 0 1.5 15.0 2853823.582 0 1500 111
"
1372687231.639682,1311,1372687231,645779494,dvl_linkquest,0X0000,1,0,1,1,1.6,0.0,2.0,1.4,-0.0696,0.0,0.12390000000000001,0.0086,0.0,-0.4,0.0,0.0,0.0,1.0,0.0,0.0,-0.25830000000000003,0.0495,0.0293,1,-0.25830000000000003,0.0495,0.0293,1,0.0,0.0,0.0,0,0.0,0.0,0.0,0,0.0,0.0,0.0,1.4,15.0,2853823.582,0.0,1500.0,"%$#NQ.RES 0X0000 1 0 1 1 1.6 0 2.0 1.4 -69.6 0 123.9 8.6 0 -400 0 0 0 1 0 0 -258.3 49.5 29.3 1 -258.3 49.5 29.3 1 0 0 0 0 0 0 0 0 0 0 0 1.4 15.0 2853823.582 0 1500 99
"
1372687231.9988787,1312,1372687232,2555951,dvl_linkquest,0X0000,1,0,1,1,2.1,0.0,1.8,1.4,-0.0941,0.0,0.11359999999999999,-0.0047,0.0,0.356,0.0,0.0,0.0,1.0,0.0,0.0,-0.2772,0.0386,0.0105,1,-0.2772,0.0386,0.0105,1,0.0,0.0,0.0,0,0.0,0.0,0.0,0,0.0,0.0,0.0,1.4,15.0,2853823.582,0.0,1500.0,"%$#NQ.RES 0X0000 1 0 1 1 2.1 0 1.8 1.4 -94.1 0 113.6 -4.7 0 356 0 0 0 1 0 0 -277.2 38.6 10.5 1 -277.2 38.6 10.5 1 0 0 0 0 0 0 0 0 0 0 0 1.4 15.0 2853823.582 0 1500 108
"
1372687232.358458,1313,1372687232,357146169,dvl_linkquest,0X0000,1,1,1,1,2.4,2.4,1.7,1.5,-0.1271,0.1245,0.18980000000000002,-0.0192,0.0,0.0,0.0,0.0,0.0,0.0,0.0,0.0,-0.4229,0.19180000000000003,0.0453,1,-0.4229,0.19180000000000003,0.0453,1,0.0,0.0,0.0,0,0.0,0.0,0.0,0,0.0,0.0,0.0,1.5,15.0,2853823.582,0.0,1500.0,"%$#NQ.RES 0X0000 1 1 1 1 2.4 2.4 1.7 1.5 -127.1 124.5 189.8 -19.2 0 0 0 0 0 0 0 0 -422.9 191.8 45.3 1 -422.9 191.8 45.3 1 0 0 0 0 0 0 0 0 0 0 0 1.5 15.0 2853823.582 0 1500 111
"
1372687232.7113574,1314,1372687232,718549728,dvl_linkquest,0X0000,0,1,1,1,0.0,2.0,1.6,1.7,0.0,0.024100000000000003,0.16119999999999998,-0.0053,-0.41200000000000003,0.0,0.0,0.0,1.0,0.0,0.0,0.0,-0.4052,0.039200000000000006,0.0101,1,-0.4052,0.039200000000000006,0.0101,1,0.0,0.0,0.0,0,0.0,0.0,0.0,0,0.0,0.0,0.0,1.6,15.0,2853823.582,0.0,1500.0,"%$#NQ.RES 0X0000 0 1 1 1 0 2.0 1.6 1.7 0 24.1 161.2 -5.3 -412 0 0 0 1 0 0 0 -405.2 39.2 10.1 1 -405.2 39.2 10.1 1 0 0 0 0 0 0 0 0 0 0 0 1.6 15.0 2853823.582 0 1500 106
"
1372687233.0712016,1315,1372687233,76241281,dvl_linkquest,0X0000,1,1,1,1,2.5,2.1,1.5,2.3,-0.1403,0.2095,0.1459,-0.0108,0.0,0.0,0.0,0.0,0.0,0.0,0.0,0.0,-0.382,0.294,0.0551,1,-0.382,0.294,0.0551,1,0.0,0.0,0.0,0,0.0,0.0,0.0,0,0.0,0.0,0.0,1.5,15.0,2853823.582,0.0,1500.0,"%$#NQ.RES 0X0000 1 1 1 1 2.5 2.1 1.5 2.3 -140.3 209.5 145.9 -10.8 0 0 0 0 0 0 0 0 -382.0 294.0 55.1 1 -382.0 294.0 55.1 1 0 0 0 0 0 0 0 0 0 0 0 1.5 15.0 2853823.582 0 1500 97
"
1372687233.4015033,1316,1372687233,402252238,dvl_linkquest,0X0000,1,1,1,1,2.2,2.1,1.4,2.4,-0.0521,-0.0819,0.12140000000000001,-0.047,0.0,0.0,0.0,0.0,0.0,0.0,0.0,0.0,0.0,0.0,0.0,0,0.0,0.0,0.0,0,0.0,0.0,0.0,0,0.0,0.0,0.0,0,0.0,0.0,0.0,1.4,15.0,2853823.582,0.0,1500.0,"%$#NQ.RES 0X0000 1 1 1 1 2.2 2.1 1.4 2.4 -52.1 -81.9 121.4 -47.0 0 0 0 0 0 0 0 0 0 0 0 0 0 0 0 0 0 0 0 0 0 0 0 0 0 0 0 1.4 15.0 2853823.582 0 1500 71
"
1372687233.7626536,1317,1372687233,762332374,dvl_linkquest,0X0000,1,1,1,1,2.1,2.2,1.4,2.4,-0.1232,-0.363,0.1279,-0.013300000000000001,0.0,0.0,0.0,0.0,0.0,0.0,0.0,0.0,-0.3351,-0.4667,-0.10020000000000001,1,-0.3351,-0.4667,-0.10020000000000001,1,0.0,0.0,0.0,0,0.0,0.0,0.0,0,0.0,0.0,0.0,1.4,15.0,2853823.582,0.0,1500.0,"%$#NQ.RES 0X0000 1 1 1 1 2.1 2.2 1.4 2.4 -123.2 -363.0 127.9 -13.3 0 0 0 0 0 0 0 0 -335.1 -466.7 -100.2 1 -335.1 -466.7 -100.2 1 0 0 0 0 0 0 0 0 0 0 0 1.4 15.0 2853823.582 0 1500 76
"
1372687234.0940769,1318,1372687234,99264075,dvl_linkquest,0X0000,1,1,1,0,2.0,2.0,1.4,0.0,-0.0645,-0.0045000000000000005,0.1341,0.0,0.0,0.0,0.0,-0.256,0.0,0.0,0.0,1.0,0.0,0.0,0.0,0,0.0,0.0,0.0,0,0.0,0.0,0.0,0,0.0,0.0,0.0,0,0.0,0.0,0.0,1.4,15.0,2853823.582,0.0,1500.0,"%$#NQ.RES 0X0000 1 1 1 0 2.0 2.0 1.4 0 -64.5 -4.5 134.1 0 0 0 0 -256 0 0 0 1 0 0 0 0 0 0 0 0 0 0 0 0 0 0 0 0 0 0 0 1.4 15.0 2853823.582 0 1500 65
"
1372687234.4454086,1319,1372687234,451924401,dvl_linkquest,0X0000,1,1,1,1,1.9,2.0,1.5,2.0,-0.1388,0.1945,0.1258,-0.0040999999999999995,0.0,0.0,0.0,0.0,0.0,0.0,0.0,0.0,-0.3531,0.2651,0.047799999999999995,1,-0.3531,0.2651,0.047799999999999995,1,0.0,0.0,0.0,0,0.0,0.0,0.0,0,0.0,0.0,0.0,1.5,15.0,2853823.582,0.0,1500.0,"%$#NQ.RES 0X0000 1 1 1 1 1.9 2.0 1.5 2.0 -138.8 194.5 125.8 -4.1 0 0 0 0 0 0 0 0 -353.1 265.1 47.8 1 -353.1 265.1 47.8 1 0 0 0 0 0 0 0 0 0 0 0 1.5 15.0 2853823.582 0 1500 84
"
1372687234.796827,1320,1372687234,801237049,dvl_linkquest,0X0000,1,1,1,1,1.9,2.0,1.5,1.9,-0.10779999999999999,-0.0221,0.1444,0.0194,0.0,0.0,0.0,0.0,0.0,0.0,0.0,0.0,-0.3366,-0.0554,0.0091,1,-0.3366,-0.0554,0.0091,1,0.0,0.0,0.0,0,0.0,0.0,0.0,0,0.0,0.0,0.0,1.5,15.0,2853823.582,0.0,1500.0,"%$#NQ.RES 0X0000 1 1 1 1 1.9 2.0 1.5 1.9 -107.8 -22.1 144.4 19.4 0 0 0 0 0 0 0 0 -336.6 -55.4 9.1 1 -336.6 -55.4 9.1 1 0 0 0 0 0 0 0 0 0 0 0 1.5 15.0 2853823.582 0 1500 88
"
1372687235.146145,1321,1372687235,153162827,dvl_linkquest,0X0000,1,1,1,1,1.9,2.0,1.6,1.9,-0.042,0.1062,0.2166,0.013900000000000001,0.0,0.0,0.0,0.0,0.0,0.0,0.0,0.0,-0.3451,0.1232,0.0795,1,-0.3451,0.1232,0.0795,1,0.0,0.0,0.0,0,0.0,0.0,0.0,0,0.0,0.0,0.0,1.6,15.0,2853823.582,0.0,1500.0,"%$#NQ.RES 0X0000 1 1 1 1 1.9 2.0 1.6 1.9 -42.0 106.2 216.6 13.9 0 0 0 0 0 0 0 0 -345.1 123.2 79.5 1 -345.1 123.2 79.5 1 0 0 0 0 0 0 0 0 0 0 0 1.6 15.0 2853823.582 0 1500 120
"
1372687235.4966304,1322,1372687235,502728599,dvl_linkquest,0X0000,1,1,1,1,2.3,2.3,1.7,1.9,0.12969999999999998,-0.331,0.1768,0.034100000000000005,0.0,0.0,0.0,0.0,0.0,0.0,0.0,0.0,-0.0629,-0.4873,0.0026000000000000003,1,-0.0629,-0.4873,0.0026000000000000003,1,0.0,0.0,0.0,0,0.0,0.0,0.0,0,0.0,0.0,0.0,1.7,15.0,2853823.582,0.0,1500.0,"%$#NQ.RES 0X0000 1 1 1 1 2.3 2.3 1.7 1.9 129.7 -331.0 176.8 34.1 0 0 0 0 0 0 0 0 -62.9 -487.3 2.6 1 -62.9 -487.3 2.6 1 0 0 0 0 0 0 0 0 0 0 0 1.7 15.0 2853823.582 0 1500 75
"
1372687235.8450809,1323,1372687235,854131594,dvl_linkquest,0X0000,1,1,1,1,2.3,2.5,2.5,1.9,-0.15880000000000002,-0.0358,0.1471,0.0319,0.0,0.0,0.0,0.0,0.0,0.0,0.0,0.0,-0.4083,-0.09040000000000001,-0.004200000000000001,1,-0.4083,-0.09040000000000001,-0.004200000000000001,1,0.0,0.0,0.0,0,0.0,0.0,0.0,0,0.0,0.0,0.0,1.9,15.0,2853823.582,0.0,1500.0,"%$#NQ.RES 0X0000 1 1 1 1 2.3 2.5 2.5 1.9 -158.8 -35.8 147.1 31.9 0 0 0 0 0 0 0 0 -408.3 -90.4 -4.2 1 -408.3 -90.4 -4.2 1 0 0 0 0 0 0 0 0 0 0 0 1.9 15.0 2853823.582 0 1500 95
"
1372687236.2025754,1324,1372687236,205964824,dvl_linkquest,0X0000,1,1,1,1,2.3,2.5,2.5,1.9,-0.1271,-0.0533,0.2209,0.0055,0.0,0.0,0.0,0.0,0.0,0.0,0.0,0.0,-0.4645,-0.0785,0.012400000000000001,1,-0.4645,-0.0785,0.012400000000000001,1,0.0,0.0,0.0,0,0.0,0.0,0.0,0,0.0,0.0,0.0,1.9,15.0,2853823.582,0.0,1500.0,"%$#NQ.RES 0X0000 1 1 1 1 2.3 2.5 2.5 1.9 -127.1 -53.3 220.9 5.5 0 0 0 0 0 0 0 0 -464.5 -78.5 12.4 1 -464.5 -78.5 12.4 1 0 0 0 0 0 0 0 0 0 0 0 1.9 15.0 2853823.582 0 1500 100
"
1372687236.5292757,1325,1372687236,531999450,dvl_linkquest,0X0000,1,1,1,1,2.3,2.5,2.4,1.9,-0.19430000000000003,0.006500000000000001,-0.08370000000000001,-0.7417,0.0,0.0,0.0,0.0,0.0,0.0,0.0,0.0,0.0,0.0,0.0,0,0.0,0.0,0.0,0,0.0,0.0,0.0,0,0.0,0.0,0.0,0,0.0,0.0,0.0,1.9,15.0,2853823.582,0.0,1500.0,"%$#NQ.RES 0X0000 1 1 1 1 2.3 2.5 2.4 1.9 -194.3 6.5 -83.7 -741.7 0 0 0 0 0 0 0 0 0 0 0 0 0 0 0 0 0 0 0 0 0 0 0 0 0 0 0 1.9 15.0 2853823.582 0 1500 68
"
1372687236.880545,1326,1372687236,881498192,dvl_linkquest,0X0000,1,1,1,1,2.2,2.5,2.5,2.2,-0.1323,-0.0026000000000000003,0.0695,0.0621,0.0,0.0,0.0,0.0,0.0,0.0,0.0,0.0,-0.26930000000000004,-0.0864,-0.0009000000000000001,1,-0.26930000000000004,-0.0864,-0.0009000000000000001,1,0.0,0.0,0.0,0,0.0,0.0,0.0,0,0.0,0.0,0.0,2.2,15.0,2853823.582,0.0,1500.0,"%$#NQ.RES 0X0000 1 1 1 1 2.2 2.5 2.5 2.2 -132.3 -2.6 69.5 62.1 0 0 0 0 0 0 0 0 -269.3 -86.4 -0.9 1 -269.3 -86.4 -0.9 1 0 0 0 0 0 0 0 0 0 0 0 2.2 15.0 2853823.582 0 1500 84
"
1372687237.229468,1327,1372687237,237790617,dvl_linkquest,0X0000,1,1,1,1,2.2,2.5,2.5,2.3,-0.15109999999999998,0.017,-0.1201,-0.2726,0.0,0.0,0.0,0.0,0.0,0.0,0.0,0.0,-0.0414,0.3865,-0.14200000000000002,1,-0.0414,0.3865,-0.14200000000000002,1,0.0,0.0,0.0,0,0.0,0.0,0.0,0,0.0,0.0,0.0,2.2,15.0,2853823.582,0.0,1500.0,"%$#NQ.RES 0X0000 1 1 1 1 2.2 2.5 2.5 2.3 -151.1 17.0 -120.1 -272.6 0 0 0 0 0 0 0 0 -41.4 386.5 -142.0 1 -41.4 386.5 -142.0 1 0 0 0 0 0 0 0 0 0 0 0 2.2 15.0 2853823.582 0 1500 65
"
1372687237.5908737,1328,1372687237,585232630,dvl_linkquest,0X0000,1,1,1,1,2.2,2.5,2.5,2.2,-0.1541,0.0543,0.1151,-0.0022,0.0,0.0,0.0,0.0,0.0,0.0,0.0,0.0,-0.3593,0.07540000000000001,0.0035,1,-0.3593,0.07540000000000001,0.0035,1,0.0,0.0,0.0,0,0.0,0.0,0.0,0,0.0,0.0,0.0,2.2,15.0,2853823.582,0.0,1500.0,"%$#NQ.RES 0X0000 1 1 1 1 2.2 2.5 2.5 2.2 -154.1 54.3 115.1 -2.2 0 0 0 0 0 0 0 0 -359.3 75.4 3.5 1 -359.3 75.4 3.5 1 0 0 0 0 0 0 0 0 0 0 0 2.2 15.0 2853823.582 0 1500 107
"
1372687237.9125223,1329,1372687237,911592657,dvl_linkquest,0X0000,1,1,1,1,2.4,2.5,2.5,2.1,-0.1404,0.039700000000000006,0.6397,0.056100000000000004,0.0,0.0,0.0,0.0,0.0,0.0,0.0,0.0,0.0,0.0,0.0,0,0.0,0.0,0.0,0,0.0,0.0,0.0,0,0.0,0.0,0.0,0,0.0,0.0,0.0,2.1,15.0,2853823.582,0.0,1500.0,"%$#NQ.RES 0X0000 1 1 1 1 2.4 2.5 2.5 2.1 -140.4 39.7 639.7 56.1 0 0 0 0 0 0 0 0 0 0 0 0 0 0 0 0 0 0 0 0 0 0 0 0 0 0 0 2.1 15.0 2853823.582 0 1500 114
"
1372687238.2623715,1330,1372687238,262897811,dvl_linkquest,0X0000,1,1,1,1,2.3,2.6,2.0,2.2,-0.0738,-0.0448,0.1237,-0.0582,0.0,0.0,0.0,0.0,0.0,0.0,0.0,0.0,-0.2636,0.0179,-0.0143,1,-0.2636,0.0179,-0.0143,1,0.0,0.0,0.0,0,0.0,0.0,0.0,0,0.0,0.0,0.0,2.0,15.0,2853823.582,0.0,1500.0,"%$#NQ.RES 0X0000 1 1 1 1 2.3 2.6 2.0 2.2 -73.8 -44.8 123.7 -58.2 0 0 0 0 0 0 0 0 -263.6 17.9 -14.3 1 -263.6 17.9 -14.3 1 0 0 0 0 0 0 0 0 0 0 0 2.0 15.0 2853823.582 0 1500 72
"
1372687238.5816505,1331,1372687238,587025329,dvl_linkquest,0X0000,1,1,1,1,2.3,2.5,1.9,2.3,-0.1535,0.5233,0.18280000000000002,1.0188,0.0,0.0,0.0,0.0,0.0,0.0,0.0,0.0,0.0,0.0,0.0,0,0.0,0.0,0.0,0,0.0,0.0,0.0,0,0.0,0.0,0.0,0,0.0,0.0,0.0,1.9,15.0,2853823.582,0.0,1500.0,"%$#NQ.RES 0X0000 1 1 1 1 2.3 2.5 1.9 2.3 -153.5 523.3 182.8 1018.8 0 0 0 0 0 0 0 0 0 0 0 0 0 0 0 0 0 0 0 0 0 0 0 0 0 0 0 1.9 15.0 2853823.582 0 1500 64
"
1372687238.9561977,1332,1372687238,957233564,dvl_linkquest,0X0000,0,1,1,1,0.0,1.6,1.9,2.0,0.0,-0.06659999999999999,0.1063,-0.0437,-0.169,0.0,0.0,0.0,1.0,0.0,0.0,0.0,-0.431,-0.030600000000000002,-0.059500000000000004,1,-0.431,-0.030600000000000002,-0.059500000000000004,1,0.0,0.0,0.0,0,0.0,0.0,0.0,0,0.0,0.0,0.0,1.6,15.0,2853823.582,0.0,1500.0,"%$#NQ.RES 0X0000 0 1 1 1 0 1.6 1.9 2.0 0 -66.6 106.3 -43.7 -169 0 0 0 1 0 0 0 -431.0 -30.6 -59.5 1 -431.0 -30.6 -59.5 1 0 0 0 0 0 0 0 0 0 0 0 1.6 15.0 2853823.582 0 1500 119
"
1372687239.2858775,1333,1372687239,294504592,dvl_linkquest,0X0000,1,0,1,1,2.1,0.0,2.0,2.0,-0.4758,0.0,0.11270000000000001,-0.041100000000000005,0.0,0.211,0.0,0.0,0.0,1.0,0.0,0.0,0.0,0.0,0.0,0,0.0,0.0,0.0,0,0.0,0.0,0.0,0,0.0,0.0,0.0,0,0.0,0.0,0.0,2.0,15.0,2853823.582,0.0,1500.0,"%$#NQ.RES 0X0000 1 0 1 1 2.1 0 2.0 2.0 -475.8 0 112.7 -41.1 0 211 0 0 0 1 0 0 0 0 0 0 0 0 0 0 0 0 0 0 0 0 0 0 0 0 0 2.0 15.0 2853823.582 0 1500 96
"
1372687239.6557486,1334,1372687239,660229129,dvl_linkquest,0X0000,1,0,1,1,2.0,0.0,2.1,2.0,-0.1012,0.0,0.2083,-0.1026,0.0,-0.434,0.0,0.0,0.0,1.0,0.0,0.0,-0.4131,0.4168,0.0578,1,-0.4131,0.4168,0.0578,1,0.0,0.0,0.0,0,0.0,0.0,0.0,0,0.0,0.0,0.0,2.0,15.0,2853823.582,0.0,1500.0,"%$#NQ.RES 0X0000 1 0 1 1 2.0 0 2.1 2.0 -101.2 0 208.3 -102.6 0 -434 0 0 0 1 0 0 -413.1 416.8 57.8 1 -413.1 416.8 57.8 1 0 0 0 0 0 0 0 0 0 0 0 2.0 15.0 2853823.582 0 1500 125
"
1372687239.977768,1335,1372687239,986212710,dvl_linkquest,0X0000,1,1,1,1,2.1,1.5,2.0,2.0,-0.1464,0.016399999999999998,0.1365,0.039799999999999995,0.0,0.0,0.0,0.0,0.0,0.0,0.0,0.0,0.0,0.0,0.0,0,0.0,0.0,0.0,0,0.0,0.0,0.0,0,0.0,0.0,0.0,0,0.0,0.0,0.0,1.5,15.0,2853823.582,0.0,1500.0,"%$#NQ.RES 0X0000 1 1 1 1 2.1 1.5 2.0 2.0 -146.4 16.4 136.5 39.8 0 0 0 0 0 0 0 0 0 0 0 0 0 0 0 0 0 0 0 0 0 0 0 0 0 0 0 1.5 15.0 2853823.582 0 1500 117
"
1372687240.327333,1336,1372687240,333952005,dvl_linkquest,0X0000,1,1,1,1,2.0,1.4,2.1,2.0,0.216,0.0017,0.16590000000000002,0.0449,0.0,0.0,0.0,0.0,0.0,0.0,0.0,0.0,0.0669,-0.0577,0.1155,1,0.0669,-0.0577,0.1155,1,0.0,0.0,0.0,0,0.0,0.0,0.0,0,0.0,0.0,0.0,1.4,15.0,2853823.582,0.0,1500.0,"%$#NQ.RES 0X0000 1 1 1 1 2.0 1.4 2.1 2.0 216.0 1.7 165.9 44.9 0 0 0 0 0 0 0 0 66.9 -57.7 115.5 1 66.9 -57.7 115.5 1 0 0 0 0 0 0 0 0 0 0 0 1.4 15.0 2853823.582 0 1500 110
"
1372687240.6594493,1337,1372687240,660164434,dvl_linkquest,0X0000,1,1,1,1,2.0,1.3,2.2,2.0,-0.0994,-0.0007,0.1753,-0.0516,0.0,0.0,0.0,0.0,0.0,0.0,0.0,0.0,0.0,0.0,0.0,0,0.0,0.0,0.0,0,0.0,0.0,0.0,0,0.0,0.0,0.0,0,0.0,0.0,0.0,1.3,15.0,2853823.582,0.0,1500.0,"%$#NQ.RES 0X0000 1 1 1 1 2.0 1.3 2.2 2.0 -99.4 -0.7 175.3 -51.6 0 0 0 0 0 0 0 0 0 0 0 0 0 0 0 0 0 0 0 0 0 0 0 0 0 0 0 1.3 15.0 2853823.582 0 1500 112
"
1372687241.0199883,1338,1372687241,25504606,dvl_linkquest,0X0000,1,1,0,1,2.0,1.3,0.0,1.9,-0.06659999999999999,0.0261,0.0,0.8921,0.0,0.0,0.084,0.0,0.0,0.0,1.0,0.0,-1.4032,-1.1558,0.4952,1,-1.4032,-1.1558,0.4952,1,0.0,0.0,0.0,0,0.0,0.0,0.0,0,0.0,0.0,0.0,1.3,15.0,2853823.582,0.0,1500.0,"%$#NQ.RES 0X0000 1 1 0 1 2.0 1.3 0 1.9 -66.6 26.1 0 892.1 0 0 84 0 0 0 1 0 -1403.2 -1155.8 495.2 1 -1403.2 -1155.8 495.2 1 0 0 0 0 0 0 0 0 0 0 0 1.3 15.0 2853823.582 0 1500 70
"
1372687241.3609278,1339,1372687241,366959508,dvl_linkquest,0X0000,1,1,0,1,1.9,1.4,0.0,2.0,-0.1988,0.010400000000000001,0.0,-0.1098,0.0,0.0,0.41100000000000003,0.0,0.0,0.0,1.0,0.0,0.0,0.0,0.0,0,0.0,0.0,0.0,0,0.0,0.0,0.0,0,0.0,0.0,0.0,0,0.0,0.0,0.0,1.4,15.0,2853823.582,0.0,1500.0,"%$#NQ.RES 0X0000 1 1 0 1 1.9 1.4 0 2.0 -198.8 10.4 0 -109.8 0 0 411 0 0 0 1 0 0 0 0 0 0 0 0 0 0 0 0 0 0 0 0 0 0 0 0 1.4 15.0 2853823.582 0 1500 111
"
1372687241.7231529,1340,1372687241,728917483,dvl_linkquest,0X0000,1,1,0,1,1.9,1.6,0.0,2.1,-0.1547,0.0383,0.0,0.0608,0.0,0.0,0.251,0.0,0.0,0.0,1.0,0.0,-0.5452,-0.03,0.0534,1,-0.5452,-0.03,0.0534,1,0.0,0.0,0.0,0,0.0,0.0,0.0,0,0.0,0.0,0.0,1.6,15.0,2853823.582,0.0,1500.0,"%$#NQ.RES 0X0000 1 1 0 1 1.9 1.6 0 2.1 -154.7 38.3 0 60.8 0 0 251 0 0 0 1 0 -545.2 -30.0 53.4 1 -545.2 -30.0 53.4 1 0 0 0 0 0 0 0 0 0 0 0 1.6 15.0 2853823.582 0 1500 125
"
1372687242.0561957,1341,1372687242,58306600,dvl_linkquest,0X0000,1,1,0,1,1.9,1.7,0.0,2.2,-0.0007,-0.0009000000000000001,0.0,-0.057600000000000005,0.0,0.0,0.059000000000000004,0.0,0.0,0.0,1.0,0.0,0.0,0.0,0.0,0,0.0,0.0,0.0,0,0.0,0.0,0.0,0,0.0,0.0,0.0,0,0.0,0.0,0.0,1.7,15.0,2853823.582,0.0,1500.0,"%$#NQ.RES 0X0000 1 1 0 1 1.9 1.7 0 2.2 -0.7 -0.9 0 -57.6 0 0 59 0 0 0 1 0 0 0 0 0 0 0 0 0 0 0 0 0 0 0 0 0 0 0 0 1.7 15.0 2853823.582 0 1500 127
"
1372687242.4027472,1342,1372687242,412034420,dvl_linkquest,0X0000,1,1,1,1,1.9,2.4,2.5,1.9,-0.19519999999999998,0.018600000000000002,0.1166,-0.09090000000000001,0.0,0.0,0.0,0.0,0.0,0.0,0.0,0.0,-0.4161,0.1461,-0.04070000000000001,1,-0.4161,0.1461,-0.04070000000000001,1,0.0,0.0,0.0,0,0.0,0.0,0.0,0,0.0,0.0,0.0,1.9,15.0,2853823.582,0.0,1500.0,"%$#NQ.RES 0X0000 1 1 1 1 1.9 2.4 2.5 1.9 -195.2 18.6 116.6 -90.9 0 0 0 0 0 0 0 0 -416.1 146.1 -40.7 1 -416.1 146.1 -40.7 1 0 0 0 0 0 0 0 0 0 0 0 1.9 15.0 2853823.582 0 1500 85
"
1372687242.7690375,1343,1372687242,774197092,dvl_linkquest,0X0000,1,1,1,1,1.9,2.4,2.4,1.9,-0.19080000000000003,-0.1996,0.15869999999999998,0.0126,0.0,0.0,0.0,0.0,0.0,0.0,0.0,0.0,-0.4665,-0.2832,-0.0591,1,-0.4665,-0.2832,-0.0591,1,0.0,0.0,0.0,0,0.0,0.0,0.0,0,0.0,0.0,0.0,1.9,15.0,2853823.582,0.0,1500.0,"%$#NQ.RES 0X0000 1 1 1 1 1.9 2.4 2.4 1.9 -190.8 -199.6 158.7 12.6 0 0 0 0 0 0 0 0 -466.5 -283.2 -59.1 1 -466.5 -283.2 -59.1 1 0 0 0 0 0 0 0 0 0 0 0 1.9 15.0 2853823.582 0 1500 109
"
1372687243.100253,1344,1372687243,99122871,dvl_linkquest,0X0000,1,1,1,1,2.0,2.2,2.3,1.9,-0.10490000000000001,0.06470000000000001,0.1421,-0.0088,0.0,0.0,0.0,0.0,0.0,0.0,0.0,0.0,0.0,0.0,0.0,0,0.0,0.0,0.0,0,0.0,0.0,0.0,0,0.0,0.0,0.0,0,0.0,0.0,0.0,1.9,15.0,2853823.582,0.0,1500.0,"%$#NQ.RES 0X0000 1 1 1 1 2.0 2.2 2.3 1.9 -104.9 64.7 142.1 -8.8 0 0 0 0 0 0 0 0 0 0 0 0 0 0 0 0 0 0 0 0 0 0 0 0 0 0 0 1.9 15.0 2853823.582 0 1500 96
"
1372687243.4504,1345,1372687243,449903526,dvl_linkquest,0X0000,1,1,1,1,1.9,2.2,2.3,1.8,-0.0743,-0.0064,0.1646,0.05620000000000001,0.0,0.0,0.0,0.0,0.0,0.0,0.0,0.0,-0.31880000000000003,-0.0835,0.0378,1,-0.31880000000000003,-0.0835,0.0378,1,0.0,0.0,0.0,0,0.0,0.0,0.0,0,0.0,0.0,0.0,1.8,15.0,2853823.582,0.0,1500.0,"%$#NQ.RES 0X0000 1 1 1 1 1.9 2.2 2.3 1.8 -74.3 -6.4 164.6 56.2 0 0 0 0 0 0 0 0 -318.8 -83.5 37.8 1 -318.8 -83.5 37.8 1 0 0 0 0 0 0 0 0 0 0 0 1.8 15.0 2853823.582 0 1500 83
"
1372687243.801846,1346,1372687243,800682618,dvl_linkquest,0X0000,1,1,1,1,1.9,2.2,2.3,1.8,-0.1166,0.0494,0.1688,0.09129999999999999,0.0,0.0,0.0,0.0,0.0,0.0,0.0,0.0,-0.38089999999999996,-0.0559,0.052000000000000005,1,-0.38089999999999996,-0.0559,0.052000000000000005,1,0.0,0.0,0.0,0,0.0,0.0,0.0,0,0.0,0.0,0.0,1.8,15.0,2853823.582,0.0,1500.0,"%$#NQ.RES 0X0000 1 1 1 1 1.9 2.2 2.3 1.8 -116.6 49.4 168.8 91.3 0 0 0 0 0 0 0 0 -380.9 -55.9 52.0 1 -380.9 -55.9 52.0 1 0 0 0 0 0 0 0 0 0 0 0 1.8 15.0 2853823.582 0 1500 125
"
1372687244.152445,1347,1372687244,156023510,dvl_linkquest,0X0000,1,1,1,1,1.9,2.2,2.3,1.8,-0.10890000000000001,-0.027899999999999998,0.1501,-0.36,0.0,0.0,0.0,0.0,0.0,0.0,0.0,0.0,-0.3457,0.4432,-0.0935,1,-0.3457,0.4432,-0.0935,1,0.0,0.0,0.0,0,0.0,0.0,0.0,0,0.0,0.0,0.0,1.8,15.0,2853823.582,0.0,1500.0,"%$#NQ.RES 0X0000 1 1 1 1 1.9 2.2 2.3 1.8 -108.9 -27.9 150.1 -360.0 0 0 0 0 0 0 0 0 -345.7 443.2 -93.5 1 -345.7 443.2 -93.5 1 0 0 0 0 0 0 0 0 0 0 0 1.8 15.0 2853823.582 0 1500 68
"
1372687244.4946759,1348,1372687244,492628544,dvl_linkquest,0X0000,1,1,0,1,1.9,2.1,0.0,1.8,-0.1087,0.0287,0.0,0.028399999999999998,0.0,0.0,0.194,0.0,0.0,0.0,1.0,0.0,0.0,0.0,0.0,0,0.0,0.0,0.0,0,0.0,0.0,0.0,0,0.0,0.0,0.0,0,0.0,0.0,0.0,1.8,15.0,2853823.582,0.0,1500.0,"%$#NQ.RES 0X0000 1 1 0 1 1.9 2.1 0 1.8 -108.7 28.7 0 28.4 0 0 194 0 0 0 1 0 0 0 0 0 0 0 0 0 0 0 0 0 0 0 0 0 0 0 0 1.8 15.0 2853823.582 0 1500 123
"
1372687244.8446162,1349,1372687244,842518104,dvl_linkquest,0X0000,1,1,0,0,0.9,2.1,0.0,0.0,-0.1072,0.0024,0.0,0.0,0.0,0.0,-0.079,-0.096,0.0,0.0,1.0,1.0,0.0,0.0,0.0,0,0.0,0.0,0.0,0,0.0,0.0,0.0,0,0.0,0.0,0.0,0,0.0,0.0,0.0,-2.0,15.0,2853823.582,0.0,1500.0,"%$#NQ.RES 0X0000 1 1 0 0 0.9 2.1 0 0 -107.2 2.4 0 0 0 0 -79 -96 0 0 1 1 0 0 0 0 0 0 0 0 0 0 0 0 0 0 0 0 0 0 0 -2.0 15.0 2853823.582 0 1500 87
"
1372687245.185119,1350,1372687245,191961983,dvl_linkquest,0X0000,1,1,1,1,0.8,2.1,1.6,2.0,-0.0905,0.0106,0.1742,0.07909999999999999,0.0,0.0,0.0,0.0,0.0,0.0,0.0,0.0,-0.3533,-0.09140000000000001,0.046700000000000005,1,-0.3533,-0.09140000000000001,0.046700000000000005,1,0.0,0.0,0.0,0,0.0,0.0,0.0,0,0.0,0.0,0.0,0.8,15.0,2853823.582,0.0,1500.0,"%$#NQ.RES 0X0000 1 1 1 1 0.8 2.1 1.6 2.0 -90.5 10.6 174.2 79.1 0 0 0 0 0 0 0 0 -353.3 -91.4 46.7 1 -353.3 -91.4 46.7 1 0 0 0 0 0 0 0 0 0 0 0 0.8 15.0 2853823.582 0 1500 67
"
1372687245.5375056,1351,1372687245,544111051,dvl_linkquest,0X0000,1,1,1,1,0.8,2.1,1.7,2.0,-0.1066,0.04820000000000001,0.1311,0.0619,0.0,0.0,0.0,0.0,0.0,0.0,0.0,0.0,-0.3172,-0.0183,0.0363,1,-0.3172,-0.0183,0.0363,1,0.0,0.0,0.0,0,0.0,0.0,0.0,0,0.0,0.0,0.0,0.8,15.0,2853823.582,0.0,1500.0,"%$#NQ.RES 0X0000 1 1 1 1 0.8 2.1 1.7 2.0 -106.6 48.2 131.1 61.9 0 0 0 0 0 0 0 0 -317.2 -18.3 36.3 1 -317.2 -18.3 36.3 1 0 0 0 0 0 0 0 0 0 0 0 0.8 15.0 2853823.582 0 1500 117
"
1372687245.8898957,1352,1372687245,893069267,dvl_linkquest,0X0000,1,1,1,1,0.8,2.1,1.8,0.9,-0.1093,0.042,0.2107,0.0157,0.0,0.0,0.0,0.0,0.0,0.0,0.0,0.0,-0.42710000000000004,0.0351,0.0429,1,-0.42710000000000004,0.0351,0.0429,1,0.0,0.0,0.0,0,0.0,0.0,0.0,0,0.0,0.0,0.0,0.8,15.0,2853823.582,0.0,1500.0,"%$#NQ.RES 0X0000 1 1 1 1 0.8 2.1 1.8 0.9 -109.3 42.0 210.7 15.7 0 0 0 0 0 0 0 0 -427.1 35.1 42.9 1 -427.1 35.1 42.9 1 0 0 0 0 0 0 0 0 0 0 0 0.8 15.0 2853823.582 0 1500 120
"
1372687246.2189996,1353,1372687246,220300609,dvl_linkquest,0X0000,1,1,1,1,0.8,0.9,2.0,0.8,-0.09759999999999999,0.031100000000000003,-0.2518,0.0291,0.0,0.0,0.0,0.0,0.0,0.0,0.0,0.0,0.0,0.0,0.0,0,0.0,0.0,0.0,0,0.0,0.0,0.0,0,0.0,0.0,0.0,0,0.0,0.0,0.0,0.8,15.0,2853823.582,0.0,1500.0,"%$#NQ.RES 0X0000 1 1 1 1 0.8 0.9 2.0 0.8 -97.6 31.1 -251.8 29.1 0 0 0 0 0 0 0 0 0 0 0 0 0 0 0 0 0 0 0 0 0 0 0 0 0 0 0 0.8 15.0 2853823.582 0 1500 96
"
1372687246.5681667,1354,1372687246,573692274,dvl_linkquest,0X0000,1,1,0,1,0.8,0.8,0.0,0.8,-0.09590000000000001,0.045,0.0,0.0391,0.0,0.0,0.336,0.0,0.0,0.0,1.0,0.0,-0.36819999999999997,0.0079,0.0454,1,-0.36819999999999997,0.0079,0.0454,1,0.0,0.0,0.0,0,0.0,0.0,0.0,0,0.0,0.0,0.0,0.8,15.0,2853823.582,0.0,1500.0,"%$#NQ.RES 0X0000 1 1 0 1 0.8 0.8 0 0.8 -95.9 45.0 0 39.1 0 0 336 0 0 0 1 0 -368.2 7.9 45.4 1 -368.2 7.9 45.4 1 0 0 0 0 0 0 0 0 0 0 0 0.8 15.0 2853823.582 0 1500 72
"
1372687246.8965378,1355,1372687246,900311322,dvl_linkquest,0X0000,1,1,1,1,0.8,0.8,2.0,0.8,-0.1086,0.032600000000000004,1.0351,0.0315,0.0,0.0,0.0,0.0,0.0,0.0,0.0,0.0,0.0,0.0,0.0,0,0.0,0.0,0.0,0,0.0,0.0,0.0,0,0.0,0.0,0.0,0,0.0,0.0,0.0,0.8,15.0,2853823.582,0.0,1500.0,"%$#NQ.RES 0X0000 1 1 1 1 0.8 0.8 2.0 0.8 -108.6 32.6 1035.1 31.5 0 0 0 0 0 0 0 0 0 0 0 0 0 0 0 0 0 0 0 0 0 0 0 0 0 0 0 0.8 15.0 2853823.582 0 1500 74
"
1372687247.2476544,1356,1372687247,246732526,dvl_linkquest,0X0000,1,1,1,1,0.7,0.8,1.0,0.8,-0.0879,0.0522,0.1708,0.014400000000000001,0.0,0.0,0.0,0.0,0.0,0.0,0.0,0.0,-0.3453,0.0504,0.040299999999999996,1,-0.3453,0.0504,0.040299999999999996,1,0.0,0.0,0.0,0,0.0,0.0,0.0,0,0.0,0.0,0.0,0.7,15.0,2853823.582,0.0,1500.0,"%$#NQ.RES 0X0000 1 1 1 1 0.7 0.8 1.0 0.8 -87.9 52.2 170.8 14.4 0 0 0 0 0 0 0 0 -345.3 50.4 40.3 1 -345.3 50.4 40.3 1 0 0 0 0 0 0 0 0 0 0 0 0.7 15.0 2853823.582 0 1500 76
"
1372687247.592122,1357,1372687247,595719838,dvl_linkquest,0X0000,1,1,1,1,0.7,0.8,0.9,0.8,-0.0975,0.0345,0.1667,0.0428,0.0,0.0,0.0,0.0,0.0,0.0,0.0,0.0,-0.3526,-0.0111,0.0395,1,-0.3526,-0.0111,0.0395,1,0.0,0.0,0.0,0,0.0,0.0,0.0,0,0.0,0.0,0.0,0.7,15.0,2853823.582,0.0,1500.0,"%$#NQ.RES 0X0000 1 1 1 1 0.7 0.8 0.9 0.8 -97.5 34.5 166.7 42.8 0 0 0 0 0 0 0 0 -352.6 -11.1 39.5 1 -352.6 -11.1 39.5 1 0 0 0 0 0 0 0 0 0 0 0 0.7 15.0 2853823.582 0 1500 73
"
1372687247.941977,1358,1372687247,942198365,dvl_linkquest,0X0000,1,1,1,1,0.7,0.8,0.9,0.7,-0.09179999999999999,0.024,0.16319999999999998,0.0265,0.0,0.0,0.0,0.0,0.0,0.0,0.0,0.0,-0.3403,-0.0033,0.032799999999999996,1,-0.3403,-0.0033,0.032799999999999996,1,0.0,0.0,0.0,0,0.0,0.0,0.0,0,0.0,0.0,0.0,0.7,15.0,2853823.582,0.0,1500.0,"%$#NQ.RES 0X0000 1 1 1 1 0.7 0.8 0.9 0.7 -91.8 24.0 163.2 26.5 0 0 0 0 0 0 0 0 -340.3 -3.3 32.8 1 -340.3 -3.3 32.8 1 0 0 0 0 0 0 0 0 0 0 0 0.7 15.0 2853823.582 0 1500 70
"
1372687248.2941065,1359,1372687248,292676714,dvl_linkquest,0X0000,1,1,1,1,0.7,0.8,0.9,0.7,-0.10890000000000001,0.0218,0.1279,0.0425,0.0,0.0,0.0,0.0,0.0,0.0,0.0,0.0,-0.316,-0.027600000000000003,0.0224,1,-0.316,-0.027600000000000003,0.0224,1,0.0,0.0,0.0,0,0.0,0.0,0.0,0,0.0,0.0,0.0,0.7,15.0,2853823.582,0.0,1500.0,"%$#NQ.RES 0X0000 1 1 1 1 0.7 0.8 0.9 0.7 -108.9 21.8 127.9 42.5 0 0 0 0 0 0 0 0 -316.0 -27.6 22.4 1 -316.0 -27.6 22.4 1 0 0 0 0 0 0 0 0 0 0 0 0.7 15.0 2853823.582 0 1500 114
"
1372687248.6415005,1360,1372687248,640998372,dvl_linkquest,0X0000,1,1,1,1,0.7,0.8,0.8,0.7,-0.09659999999999999,0.018000000000000002,0.1667,0.0497,0.0,0.0,0.0,0.0,0.0,0.0,0.0,0.0,-0.3514,-0.0423,0.0371,1,-0.3514,-0.0423,0.0371,1,0.0,0.0,0.0,0,0.0,0.0,0.0,0,0.0,0.0,0.0,0.7,15.0,2853823.582,0.0,1500.0,"%$#NQ.RES 0X0000 1 1 1 1 0.7 0.8 0.8 0.7 -96.6 18.0 166.7 49.7 0 0 0 0 0 0 0 0 -351.4 -42.3 37.1 1 -351.4 -42.3 37.1 1 0 0 0 0 0 0 0 0 0 0 0 0.7 15.0 2853823.582 0 1500 74
"
1372687248.9794462,1361,1372687248,980548835,dvl_linkquest,0X0000,1,1,1,1,0.7,0.8,0.8,0.6,-0.09870000000000001,0.052700000000000004,0.1611,0.0508,0.0,0.0,0.0,0.0,0.0,0.0,0.0,0.0,-0.3467,0.0025,0.044700000000000004,1,-0.3467,0.0025,0.044700000000000004,1,0.0,0.0,0.0,0,0.0,0.0,0.0,0,0.0,0.0,0.0,0.6,15.0,2853823.582,0.0,1500.0,"%$#NQ.RES 0X0000 1 1 1 1 0.7 0.8 0.8 0.6 -98.7 52.7 161.1 50.8 0 0 0 0 0 0 0 0 -346.7 2.5 44.7 1 -346.7 2.5 44.7 1 0 0 0 0 0 0 0 0 0 0 0 0.6 15.0 2853823.582 0 1500 74
"
1372687249.3281887,1362,1372687249,333998048,dvl_linkquest,0X0000,1,1,1,1,0.7,0.7,0.8,0.6,-0.0805,0.027800000000000002,0.1462,0.056100000000000004,0.0,0.0,0.0,0.0,0.0,0.0,0.0,0.0,-0.30260000000000004,-0.0378,0.040299999999999996,1,-0.30260000000000004,-0.0378,0.040299999999999996,1,0.0,0.0,0.0,0,0.0,0.0,0.0,0,0.0,0.0,0.0,0.6,15.0,2853823.582,0.0,1500.0,"%$#NQ.RES 0X0000 1 1 1 1 0.7 0.7 0.8 0.6 -80.5 27.8 146.2 56.1 0 0 0 0 0 0 0 0 -302.6 -37.8 40.3 1 -302.6 -37.8 40.3 1 0 0 0 0 0 0 0 0 0 0 0 0.6 15.0 2853823.582 0 1500 74
"
1372687249.6782496,1363,1372687249,681922777,dvl_linkquest,0X0000,1,1,1,1,0.7,0.7,0.8,0.7,-0.0995,0.0245,0.1742,0.0513,0.0,0.0,0.0,0.0,0.0,0.0,0.0,0.0,-0.3653,-0.0358,0.040600000000000004,1,-0.3653,-0.0358,0.040600000000000004,1,0.0,0.0,0.0,0,0.0,0.0,0.0,0,0.0,0.0,0.0,0.7,15.0,2853823.582,0.0,1500.0,"%$#NQ.RES 0X0000 1 1 1 1 0.7 0.7 0.8 0.7 -99.5 24.5 174.2 51.3 0 0 0 0 0 0 0 0 -365.3 -35.8 40.6 1 -365.3 -35.8 40.6 1 0 0 0 0 0 0 0 0 0 0 0 0.7 15.0 2853823.582 0 1500 72
"
1372687250.0283682,1364,1372687250,30610869,dvl_linkquest,0X0000,1,1,1,1,1.7,0.8,0.8,0.7,-0.0834,0.013300000000000001,0.157,0.0381,0.0,0.0,0.0,0.0,0.0,0.0,0.0,0.0,-0.32080000000000003,-0.033100000000000004,0.0337,1,-0.32080000000000003,-0.033100000000000004,0.0337,1,0.0,0.0,0.0,0,0.0,0.0,0.0,0,0.0,0.0,0.0,0.7,15.0,2853823.582,0.0,1500.0,"%$#NQ.RES 0X0000 1 1 1 1 1.7 0.8 0.8 0.7 -83.4 13.3 157.0 38.1 0 0 0 0 0 0 0 0 -320.8 -33.1 33.7 1 -320.8 -33.1 33.7 1 0 0 0 0 0 0 0 0 0 0 0 0.7 15.0 2853823.582 0 1500 64
"
1372687250.376625,1365,1372687250,379369400,dvl_linkquest,0X0000,1,1,1,1,1.8,0.7,0.8,0.7,-0.116,0.0202,0.1772,0.11420000000000001,0.0,0.0,0.0,0.0,0.0,0.0,0.0,0.0,-0.39130000000000004,-0.1255,0.052700000000000004,1,-0.39130000000000004,-0.1255,0.052700000000000004,1,0.0,0.0,0.0,0,0.0,0.0,0.0,0,0.0,0.0,0.0,0.7,15.0,2853823.582,0.0,1500.0,"%$#NQ.RES 0X0000 1 1 1 1 1.8 0.7 0.8 0.7 -116.0 20.2 177.2 114.2 0 0 0 0 0 0 0 0 -391.3 -125.5 52.7 1 -391.3 -125.5 52.7 1 0 0 0 0 0 0 0 0 0 0 0 0.7 15.0 2853823.582 0 1500 68
"
1372687250.729802,1366,1372687250,730948722,dvl_linkquest,0X0000,1,1,1,1,1.8,0.7,0.7,1.9,-0.0405,0.0277,0.16230000000000003,0.0315,0.0,0.0,0.0,0.0,0.0,0.0,0.0,0.0,-0.2707,-0.0050999999999999995,0.048799999999999996,1,-0.2707,-0.0050999999999999995,0.048799999999999996,1,0.0,0.0,0.0,0,0.0,0.0,0.0,0,0.0,0.0,0.0,0.7,15.0,2853823.582,0.0,1500.0,"%$#NQ.RES 0X0000 1 1 1 1 1.8 0.7 0.7 1.9 -40.5 27.7 162.3 31.5 0 0 0 0 0 0 0 0 -270.7 -5.1 48.8 1 -270.7 -5.1 48.8 1 0 0 0 0 0 0 0 0 0 0 0 0.7 15.0 2853823.582 0 1500 69
"
1372687251.0717595,1367,1372687251,77869839,dvl_linkquest,0X0000,1,1,1,1,1.7,1.4,0.8,2.0,-0.049100000000000005,0.0253,0.17830000000000001,0.0292,0.0,0.0,0.0,0.0,0.0,0.0,0.0,0.0,-0.3035,-0.005200000000000001,0.0495,1,-0.3035,-0.005200000000000001,0.0495,1,0.0,0.0,0.0,0,0.0,0.0,0.0,0,0.0,0.0,0.0,0.8,15.0,2853823.582,0.0,1500.0,"%$#NQ.RES 0X0000 1 1 1 1 1.7 1.4 0.8 2.0 -49.1 25.3 178.3 29.2 0 0 0 0 0 0 0 0 -303.5 -5.2 49.5 1 -303.5 -5.2 49.5 1 0 0 0 0 0 0 0 0 0 0 0 0.8 15.0 2853823.582 0 1500 76
"
1372687251.4212742,1368,1372687251,427290583,dvl_linkquest,0X0000,1,1,1,1,1.8,1.9,0.7,1.9,-0.13590000000000002,0.020800000000000003,0.1392,0.0228,0.0,0.0,0.0,0.0,0.0,0.0,0.0,0.0,-0.36719999999999997,-0.0027,0.0126,1,-0.36719999999999997,-0.0027,0.0126,1,0.0,0.0,0.0,0,0.0,0.0,0.0,0,0.0,0.0,0.0,0.7,15.0,2853823.582,0.0,1500.0,"%$#NQ.RES 0X0000 1 1 1 1 1.8 1.9 0.7 1.9 -135.9 20.8 139.2 22.8 0 0 0 0 0 0 0 0 -367.2 -2.7 12.6 1 -367.2 -2.7 12.6 1 0 0 0 0 0 0 0 0 0 0 0 0.7 15.0 2853823.582 0 1500 125
"
